time,header_stamp_secs,header_stamp_nsecs,header_frame_id,status_status,status_service,latitude,longitude,altitude,position_covariance_0,position_covariance_1,position_covariance_2,position_covariance_3,position_covariance_4,position_covariance_5,position_covariance_6,position_covariance_7,position_covariance_8,position_covariance_type
2025/10/17 12:43:19.310137969,1760697799,309854452,gps,2,1,47.4723897,19.063337061666665,148.44400000000002,17.305600000000002,0.0,0.0,0.0,17.305600000000002,0.0,0.0,0.0,276.88960000000003,1
2025/10/17 12:43:19.558517771,1760697799,558094897,gps,2,1,47.47238966166667,19.063336991666667,148.447,17.305600000000002,0.0,0.0,0.0,17.305600000000002,0.0,0.0,0.0,276.88960000000003,1
2025/10/17 12:43:19.813042910,1760697799,812723158,gps,2,1,47.472389641666666,19.063336981666666,148.44400000000002,17.305600000000002,0.0,0.0,0.0,17.305600000000002,0.0,0.0,0.0,276.88960000000003,1
2025/10/17 12:43:20.67677382,1760697800,67179474,gps,2,1,47.47238968166667,19.063336991666667,148.457,17.305600000000002,0.0,0.0,0.0,17.305600000000002,0.0,0.0,0.0,276.88960000000003,1
2025/10/17 12:43:20.312444061,1760697800,311948945,gps,2,1,47.47238966166667,19.063336951666667,148.458,17.305600000000002,0.0,0.0,0.0,17.305600000000002,0.0,0.0,0.0,276.88960000000003,1
2025/10/17 12:43:20.574537179,1760697800,574081335,gps,2,1,47.47238966,19.06333687,148.45999999999998,17.305600000000002,0.0,0.0,0.0,17.305600000000002,0.0,0.0,0.0,276.88960000000003,1
2025/10/17 12:43:20.812096300,1760697800,811797480,gps,2,1,47.472389615,19.063336856666666,148.469,17.305600000000002,0.0,0.0,0.0,17.305600000000002,0.0,0.0,0.0,276.88960000000003,1
2025/10/17 12:43:21.70034163,1760697801,69447446,gps,2,1,47.472389568333334,19.063336778333333,148.462,17.305600000000002,0.0,0.0,0.0,17.305600000000002,0.0,0.0,0.0,276.88960000000003,1
2025/10/17 12:43:21.309792620,1760697801,309412703,gps,2,1,47.472389508333336,19.06333688,148.465,17.305600000000002,0.0,0.0,0.0,17.305600000000002,0.0,0.0,0.0,276.88960000000003,1
2025/10/17 12:43:21.560700384,1760697801,560285773,gps,2,1,47.472389455,19.063336933333332,148.478,17.305600000000002,0.0,0.0,0.0,17.305600000000002,0.0,0.0,0.0,276.88960000000003,1
2025/10/17 12:43:21.813738105,1760697801,813249276,gps,2,1,47.47238943666667,19.063337025,148.49099999999999,17.305600000000002,0.0,0.0,0.0,17.305600000000002,0.0,0.0,0.0,276.88960000000003,1
2025/10/17 12:43:22.65493465,1760697802,65335662,gps,2,1,47.47238944,19.06333706,148.499,17.305600000000002,0.0,0.0,0.0,17.305600000000002,0.0,0.0,0.0,276.88960000000003,1
2025/10/17 12:43:22.306657840,1760697802,306230219,gps,2,1,47.472389405,19.063337028333333,148.502,17.305600000000002,0.0,0.0,0.0,17.305600000000002,0.0,0.0,0.0,276.88960000000003,1
2025/10/17 12:43:22.571714686,1760697802,571399639,gps,2,1,47.472389396666664,19.063336985,148.498,17.305600000000002,0.0,0.0,0.0,17.305600000000002,0.0,0.0,0.0,276.88960000000003,1
2025/10/17 12:43:22.809315771,1760697802,808806661,gps,2,1,47.472389328333335,19.063336991666667,148.50799999999998,17.305600000000002,0.0,0.0,0.0,17.305600000000002,0.0,0.0,0.0,276.88960000000003,1
2025/10/17 12:43:23.67080920,1760697803,66715649,gps,2,1,47.47238934,19.063337093333335,148.522,17.305600000000002,0.0,0.0,0.0,17.305600000000002,0.0,0.0,0.0,276.88960000000003,1
2025/10/17 12:43:23.311206383,1760697803,310810529,gps,2,1,47.47238932333333,19.063337015,148.528,17.305600000000002,0.0,0.0,0.0,17.305600000000002,0.0,0.0,0.0,276.88960000000003,1
2025/10/17 12:43:23.559882386,1760697803,559496605,gps,2,1,47.472389225,19.063337186666665,148.538,17.305600000000002,0.0,0.0,0.0,17.305600000000002,0.0,0.0,0.0,276.88960000000003,1
2025/10/17 12:43:23.809549972,1760697803,809112951,gps,2,1,47.47238934,19.063336963333334,148.576,17.305600000000002,0.0,0.0,0.0,17.305600000000002,0.0,0.0,0.0,276.88960000000003,1
2025/10/17 12:43:24.64159001,1760697804,63701354,gps,2,1,47.472389416666665,19.063336858333333,148.599,17.305600000000002,0.0,0.0,0.0,17.305600000000002,0.0,0.0,0.0,276.88960000000003,1
2025/10/17 12:43:24.310754768,1760697804,310310632,gps,2,1,47.472389406666665,19.063336743333334,148.62,17.305600000000002,0.0,0.0,0.0,17.305600000000002,0.0,0.0,0.0,276.88960000000003,1
2025/10/17 12:43:24.571041405,1760697804,570680533,gps,2,1,47.47238938666667,19.063336781666667,148.635,17.305600000000002,0.0,0.0,0.0,17.305600000000002,0.0,0.0,0.0,276.88960000000003,1
2025/10/17 12:43:24.811096410,1760697804,810806686,gps,2,1,47.472389533333335,19.063336583333335,148.664,17.305600000000002,0.0,0.0,0.0,17.305600000000002,0.0,0.0,0.0,276.88960000000003,1
2025/10/17 12:43:25.66580621,1760697805,66241023,gps,2,1,47.472389543333335,19.063336355,148.675,17.305600000000002,0.0,0.0,0.0,17.305600000000002,0.0,0.0,0.0,276.88960000000003,1
2025/10/17 12:43:25.309496022,1760697805,309177413,gps,2,1,47.472389605,19.063336388333333,148.715,17.305600000000002,0.0,0.0,0.0,17.305600000000002,0.0,0.0,0.0,276.88960000000003,1
2025/10/17 12:43:25.561202586,1760697805,560869113,gps,2,1,47.47238963,19.063336393333334,148.737,17.305600000000002,0.0,0.0,0.0,17.305600000000002,0.0,0.0,0.0,276.88960000000003,1
2025/10/17 12:43:25.809879639,1760697805,809551380,gps,2,1,47.47238967333333,19.063336521666667,148.78,17.305600000000002,0.0,0.0,0.0,17.305600000000002,0.0,0.0,0.0,276.88960000000003,1
2025/10/17 12:43:26.64395334,1760697806,64259711,gps,2,1,47.472389768333336,19.063336505,148.803,17.305600000000002,0.0,0.0,0.0,17.305600000000002,0.0,0.0,0.0,276.88960000000003,1
2025/10/17 12:43:26.311226561,1760697806,310913046,gps,2,1,47.47238974,19.063336221666667,148.784,17.305600000000002,0.0,0.0,0.0,17.305600000000002,0.0,0.0,0.0,276.88960000000003,1
2025/10/17 12:43:26.572520962,1760697806,571897733,gps,2,1,47.472389745,19.06333632,148.80700000000002,17.305600000000002,0.0,0.0,0.0,17.305600000000002,0.0,0.0,0.0,276.88960000000003,1
2025/10/17 12:43:26.807194833,1760697806,807062772,gps,2,1,47.4723898,19.063336546666665,148.846,17.305600000000002,0.0,0.0,0.0,17.305600000000002,0.0,0.0,0.0,276.88960000000003,1
2025/10/17 12:43:27.68006415,1760697807,67553257,gps,2,1,47.47238977166667,19.063336596666666,148.862,17.305600000000002,0.0,0.0,0.0,17.305600000000002,0.0,0.0,0.0,276.88960000000003,1
2025/10/17 12:43:27.312330857,1760697807,312016275,gps,2,1,47.47238979,19.063336616666668,148.874,17.305600000000002,0.0,0.0,0.0,17.305600000000002,0.0,0.0,0.0,276.88960000000003,1
2025/10/17 12:43:27.560123508,1760697807,559899622,gps,2,1,47.47238977666667,19.063336723333332,148.885,17.305600000000002,0.0,0.0,0.0,17.305600000000002,0.0,0.0,0.0,276.88960000000003,1
2025/10/17 12:43:27.808786505,1760697807,808699716,gps,2,1,47.47238972,19.063336695,148.889,17.305600000000002,0.0,0.0,0.0,17.305600000000002,0.0,0.0,0.0,276.88960000000003,1
2025/10/17 12:43:28.64606909,1760697808,64275959,gps,2,1,47.47238967333333,19.06333665,148.888,17.305600000000002,0.0,0.0,0.0,17.305600000000002,0.0,0.0,0.0,276.88960000000003,1
2025/10/17 12:43:28.308077751,1760697808,307691262,gps,2,1,47.47238962833333,19.063336728333333,148.892,17.305600000000002,0.0,0.0,0.0,17.305600000000002,0.0,0.0,0.0,276.88960000000003,1
2025/10/17 12:43:28.564079389,1760697808,563685375,gps,2,1,47.472389686666666,19.063336731666666,148.887,17.305600000000002,0.0,0.0,0.0,17.305600000000002,0.0,0.0,0.0,276.88960000000003,1
2025/10/17 12:43:28.810217311,1760697808,809809619,gps,2,1,47.472389656666664,19.063336921666668,148.918,17.305600000000002,0.0,0.0,0.0,17.305600000000002,0.0,0.0,0.0,276.88960000000003,1
2025/10/17 12:43:29.67836590,1760697809,67419734,gps,2,1,47.47238971,19.06333705666667,148.93200000000002,17.305600000000002,0.0,0.0,0.0,17.305600000000002,0.0,0.0,0.0,276.88960000000003,1
2025/10/17 12:43:29.308801601,1760697809,308390585,gps,2,1,47.47238970666667,19.063337105,148.94299999999998,17.305600000000002,0.0,0.0,0.0,17.305600000000002,0.0,0.0,0.0,276.88960000000003,1
2025/10/17 12:43:29.557595858,1760697809,557300443,gps,2,1,47.472389723333336,19.063337065,148.945,17.305600000000002,0.0,0.0,0.0,17.305600000000002,0.0,0.0,0.0,276.88960000000003,1
2025/10/17 12:43:29.808044532,1760697809,807593397,gps,2,1,47.47238971666667,19.06333692666667,148.963,17.305600000000002,0.0,0.0,0.0,17.305600000000002,0.0,0.0,0.0,276.88960000000003,1
2025/10/17 12:43:30.69380224,1760697810,69007447,gps,2,1,47.47238972833333,19.063336853333332,148.974,17.305600000000002,0.0,0.0,0.0,17.305600000000002,0.0,0.0,0.0,276.88960000000003,1
2025/10/17 12:43:30.309583756,1760697810,309333783,gps,2,1,47.47238972,19.06333684333333,148.985,17.305600000000002,0.0,0.0,0.0,17.305600000000002,0.0,0.0,0.0,276.88960000000003,1
2025/10/17 12:43:30.574238844,1760697810,573706346,gps,2,1,47.4723897,19.063336795,148.99,17.305600000000002,0.0,0.0,0.0,17.305600000000002,0.0,0.0,0.0,276.88960000000003,1
2025/10/17 12:43:30.810983787,1760697810,810643204,gps,2,1,47.47238969833333,19.063336795,148.995,17.305600000000002,0.0,0.0,0.0,17.305600000000002,0.0,0.0,0.0,276.88960000000003,1
2025/10/17 12:43:31.67073160,1760697811,66788737,gps,2,1,47.47238967333333,19.063336775,148.99200000000002,17.305600000000002,0.0,0.0,0.0,17.305600000000002,0.0,0.0,0.0,276.88960000000003,1
2025/10/17 12:43:31.306193403,1760697811,305877844,gps,2,1,47.472389693333334,19.063336833333334,149.001,17.305600000000002,0.0,0.0,0.0,17.305600000000002,0.0,0.0,0.0,276.88960000000003,1
2025/10/17 12:43:31.561433914,1760697811,560945614,gps,2,1,47.472389685,19.063336848333332,148.999,17.305600000000002,0.0,0.0,0.0,17.305600000000002,0.0,0.0,0.0,276.88960000000003,1
2025/10/17 12:43:31.808885775,1760697811,808511134,gps,2,1,47.47238976333333,19.063336916666668,149.024,17.305600000000002,0.0,0.0,0.0,17.305600000000002,0.0,0.0,0.0,276.88960000000003,1
2025/10/17 12:43:32.64870851,1760697812,64567263,gps,2,1,47.47238977833333,19.06333685,149.03199999999998,17.305600000000002,0.0,0.0,0.0,17.305600000000002,0.0,0.0,0.0,276.88960000000003,1
2025/10/17 12:43:32.310271091,1760697812,309902562,gps,2,1,47.47238985166667,19.063336878333335,149.04899999999998,17.305600000000002,0.0,0.0,0.0,17.305600000000002,0.0,0.0,0.0,276.88960000000003,1
2025/10/17 12:43:32.569814863,1760697812,569270723,gps,2,1,47.47238989666667,19.063336971666665,149.06900000000002,17.305600000000002,0.0,0.0,0.0,17.305600000000002,0.0,0.0,0.0,276.88960000000003,1
2025/10/17 12:43:32.809952272,1760697812,809586875,gps,2,1,47.47238994166667,19.063336903333333,149.078,17.305600000000002,0.0,0.0,0.0,17.305600000000002,0.0,0.0,0.0,276.88960000000003,1
2025/10/17 12:43:33.60211309,1760697813,59902060,gps,2,1,47.47238994333333,19.063336835,149.082,17.305600000000002,0.0,0.0,0.0,17.305600000000002,0.0,0.0,0.0,276.88960000000003,1
2025/10/17 12:43:33.308859545,1760697813,308431753,gps,2,1,47.472389983333336,19.06333692,149.094,17.305600000000002,0.0,0.0,0.0,17.305600000000002,0.0,0.0,0.0,276.88960000000003,1
2025/10/17 12:43:33.559508938,1760697813,559104917,gps,2,1,47.472390005,19.063336853333332,149.09199999999998,17.305600000000002,0.0,0.0,0.0,17.305600000000002,0.0,0.0,0.0,276.88960000000003,1
2025/10/17 12:43:33.809798734,1760697813,809392689,gps,2,1,47.47239007333334,19.063336971666665,149.106,17.305600000000002,0.0,0.0,0.0,17.305600000000002,0.0,0.0,0.0,276.88960000000003,1
2025/10/17 12:43:34.64814916,1760697814,64348477,gps,2,1,47.472390106666666,19.063336996666667,149.11599999999999,17.305600000000002,0.0,0.0,0.0,17.305600000000002,0.0,0.0,0.0,276.88960000000003,1
2025/10/17 12:43:34.312201211,1760697814,311928457,gps,2,1,47.47238996666667,19.063337118333333,149.118,17.305600000000002,0.0,0.0,0.0,17.305600000000002,0.0,0.0,0.0,276.88960000000003,1
2025/10/17 12:43:34.571883332,1760697814,571518370,gps,2,1,47.47238963666667,19.063337158333333,149.102,17.305600000000002,0.0,0.0,0.0,17.305600000000002,0.0,0.0,0.0,276.88960000000003,1
2025/10/17 12:43:34.810508818,1760697814,810138497,gps,2,1,47.472388966666664,19.063337195,149.04899999999998,17.305600000000002,0.0,0.0,0.0,17.305600000000002,0.0,0.0,0.0,276.88960000000003,1
2025/10/17 12:43:35.68293986,1760697815,67946193,gps,2,1,47.47238806833333,19.06333817333333,149.086,17.305600000000002,0.0,0.0,0.0,17.305600000000002,0.0,0.0,0.0,276.88960000000003,1
2025/10/17 12:43:35.314806359,1760697815,314426700,gps,2,1,47.47238694833333,19.063339145,149.124,17.305600000000002,0.0,0.0,0.0,17.305600000000002,0.0,0.0,0.0,276.88960000000003,1
2025/10/17 12:43:35.558679676,1760697815,558312596,gps,2,1,47.47238534666667,19.063340476666667,149.18200000000002,17.305600000000002,0.0,0.0,0.0,17.305600000000002,0.0,0.0,0.0,276.88960000000003,1
2025/10/17 12:43:35.806042615,1760697815,805678271,gps,2,1,47.47238373166667,19.063341201666667,149.197,17.305600000000002,0.0,0.0,0.0,17.305600000000002,0.0,0.0,0.0,276.88960000000003,1
2025/10/17 12:43:36.68147777,1760697816,67739431,gps,2,1,47.472381698333336,19.063341725,149.201,17.305600000000002,0.0,0.0,0.0,17.305600000000002,0.0,0.0,0.0,276.88960000000003,1
2025/10/17 12:43:36.312411484,1760697816,311960967,gps,2,1,47.47237937166667,19.063342296666665,149.221,17.305600000000002,0.0,0.0,0.0,17.305600000000002,0.0,0.0,0.0,276.88960000000003,1
2025/10/17 12:43:36.573837579,1760697816,573405838,gps,2,1,47.47237738166667,19.06334263666667,149.239,17.305600000000002,0.0,0.0,0.0,17.305600000000002,0.0,0.0,0.0,276.88960000000003,1
2025/10/17 12:43:36.814615943,1760697816,814225968,gps,2,1,47.472375588333335,19.06334276833333,149.29500000000002,17.305600000000002,0.0,0.0,0.0,17.305600000000002,0.0,0.0,0.0,276.88960000000003,1
2025/10/17 12:43:37.69706620,1760697817,69408527,gps,2,1,47.472374035,19.063342658333333,149.327,17.305600000000002,0.0,0.0,0.0,17.305600000000002,0.0,0.0,0.0,276.88960000000003,1
2025/10/17 12:43:37.311077157,1760697817,310973924,gps,2,1,47.472372365,19.063342623333334,149.337,17.305600000000002,0.0,0.0,0.0,17.305600000000002,0.0,0.0,0.0,276.88960000000003,1
2025/10/17 12:43:37.557592238,1760697817,557490529,gps,2,1,47.47237050333333,19.06334236,149.358,17.305600000000002,0.0,0.0,0.0,17.305600000000002,0.0,0.0,0.0,276.88960000000003,1
2025/10/17 12:43:37.815187644,1760697817,814845609,gps,2,1,47.47236828,19.063341825,149.372,17.305600000000002,0.0,0.0,0.0,17.305600000000002,0.0,0.0,0.0,276.88960000000003,1
2025/10/17 12:43:38.68483963,1760697818,68101675,gps,2,1,47.47236636833333,19.063341078333334,149.374,17.305600000000002,0.0,0.0,0.0,17.305600000000002,0.0,0.0,0.0,276.88960000000003,1
2025/10/17 12:43:38.313032915,1760697818,312905259,gps,2,1,47.47236483,19.063340615,149.378,17.305600000000002,0.0,0.0,0.0,17.305600000000002,0.0,0.0,0.0,276.88960000000003,1
2025/10/17 12:43:38.569707406,1760697818,569323715,gps,2,1,47.47236359833333,19.063340255,149.374,17.305600000000002,0.0,0.0,0.0,17.305600000000002,0.0,0.0,0.0,276.88960000000003,1
2025/10/17 12:43:38.808527093,1760697818,808390755,gps,2,1,47.472362493333335,19.063339813333332,149.37099999999998,17.305600000000002,0.0,0.0,0.0,17.305600000000002,0.0,0.0,0.0,276.88960000000003,1
2025/10/17 12:43:39.65743258,1760697819,65544750,gps,2,1,47.4723615,19.063339323333334,149.375,17.305600000000002,0.0,0.0,0.0,17.305600000000002,0.0,0.0,0.0,276.88960000000003,1
2025/10/17 12:43:39.309008730,1760697819,308826794,gps,2,1,47.47236083,19.063339066666668,149.376,17.305600000000002,0.0,0.0,0.0,17.305600000000002,0.0,0.0,0.0,276.88960000000003,1
2025/10/17 12:43:39.560563003,1760697819,560491287,gps,2,1,47.472359858333334,19.06333875,149.373,17.305600000000002,0.0,0.0,0.0,17.305600000000002,0.0,0.0,0.0,276.88960000000003,1
2025/10/17 12:43:39.814522695,1760697819,814201659,gps,2,1,47.472358485,19.063337976666666,149.37099999999998,17.305600000000002,0.0,0.0,0.0,17.305600000000002,0.0,0.0,0.0,276.88960000000003,1
2025/10/17 12:43:40.65470856,1760697820,65347349,gps,2,1,47.47235630833333,19.063336981666666,149.374,17.305600000000002,0.0,0.0,0.0,17.305600000000002,0.0,0.0,0.0,276.88960000000003,1
2025/10/17 12:43:40.307551966,1760697820,307186231,gps,2,1,47.47235462333333,19.063335858333332,149.376,17.305600000000002,0.0,0.0,0.0,17.305600000000002,0.0,0.0,0.0,276.88960000000003,1
2025/10/17 12:43:40.569770357,1760697820,569334598,gps,2,1,47.472353186666666,19.063335245,149.37900000000002,17.305600000000002,0.0,0.0,0.0,17.305600000000002,0.0,0.0,0.0,276.88960000000003,1
2025/10/17 12:43:40.809790410,1760697820,809355218,gps,2,1,47.47235192,19.063334941666668,149.399,17.305600000000002,0.0,0.0,0.0,17.305600000000002,0.0,0.0,0.0,276.88960000000003,1
2025/10/17 12:43:41.64269769,1760697821,63990815,gps,2,1,47.47235054833333,19.063334365,149.398,17.305600000000002,0.0,0.0,0.0,17.305600000000002,0.0,0.0,0.0,276.88960000000003,1
2025/10/17 12:43:41.311849749,1760697821,311555909,gps,2,1,47.47234852166667,19.06333399,149.421,17.305600000000002,0.0,0.0,0.0,17.305600000000002,0.0,0.0,0.0,276.88960000000003,1
2025/10/17 12:43:41.561035493,1760697821,560770469,gps,2,1,47.472345776666664,19.063333298333333,149.445,17.305600000000002,0.0,0.0,0.0,17.305600000000002,0.0,0.0,0.0,276.88960000000003,1
2025/10/17 12:43:41.810615210,1760697821,810235058,gps,2,1,47.472342755,19.063332758333335,149.453,17.305600000000002,0.0,0.0,0.0,17.305600000000002,0.0,0.0,0.0,276.88960000000003,1
2025/10/17 12:43:42.61195822,1760697822,60809126,gps,2,1,47.47233994333333,19.063332316666667,149.466,17.305600000000002,0.0,0.0,0.0,17.305600000000002,0.0,0.0,0.0,276.88960000000003,1
2025/10/17 12:43:42.311666171,1760697822,311255697,gps,2,1,47.472337681666666,19.063332046666666,149.473,17.305600000000002,0.0,0.0,0.0,17.305600000000002,0.0,0.0,0.0,276.88960000000003,1
2025/10/17 12:43:42.566729706,1760697822,566351428,gps,2,1,47.472335745,19.0633321,149.486,17.305600000000002,0.0,0.0,0.0,17.305600000000002,0.0,0.0,0.0,276.88960000000003,1
2025/10/17 12:43:42.808678718,1760697822,808293451,gps,2,1,47.47233426333333,19.06333252,149.522,17.305600000000002,0.0,0.0,0.0,17.305600000000002,0.0,0.0,0.0,276.88960000000003,1
2025/10/17 12:43:43.69442411,1760697823,69124851,gps,2,1,47.472332773333335,19.063332566666666,149.518,17.305600000000002,0.0,0.0,0.0,17.305600000000002,0.0,0.0,0.0,276.88960000000003,1
2025/10/17 12:43:43.312557615,1760697823,312153393,gps,2,1,47.47233017666667,19.063332525,149.516,17.305600000000002,0.0,0.0,0.0,17.305600000000002,0.0,0.0,0.0,276.88960000000003,1
2025/10/17 12:43:43.559249902,1760697823,558867686,gps,2,1,47.47232695833333,19.06333283,149.506,17.305600000000002,0.0,0.0,0.0,17.305600000000002,0.0,0.0,0.0,276.88960000000003,1
2025/10/17 12:43:43.807413091,1760697823,807041322,gps,2,1,47.472323743333334,19.063333695,149.51,17.305600000000002,0.0,0.0,0.0,17.305600000000002,0.0,0.0,0.0,276.88960000000003,1
2025/10/17 12:43:44.66118527,1760697824,65691705,gps,2,1,47.47232060666666,19.06333451,149.531,17.305600000000002,0.0,0.0,0.0,17.305600000000002,0.0,0.0,0.0,276.88960000000003,1
2025/10/17 12:43:44.311969443,1760697824,311570633,gps,2,1,47.4723177,19.063335423333335,149.539,17.305600000000002,0.0,0.0,0.0,17.305600000000002,0.0,0.0,0.0,276.88960000000003,1
2025/10/17 12:43:44.569955756,1760697824,569598524,gps,2,1,47.472315135,19.063336261666667,149.548,17.305600000000002,0.0,0.0,0.0,17.305600000000002,0.0,0.0,0.0,276.88960000000003,1
2025/10/17 12:43:44.807152805,1760697824,806815333,gps,2,1,47.472312863333336,19.063336873333334,149.529,17.305600000000002,0.0,0.0,0.0,17.305600000000002,0.0,0.0,0.0,276.88960000000003,1
2025/10/17 12:43:45.71327724,1760697825,70829657,gps,2,1,47.47231087,19.063337696666668,149.50900000000001,17.305600000000002,0.0,0.0,0.0,17.305600000000002,0.0,0.0,0.0,276.88960000000003,1
2025/10/17 12:43:45.309742209,1760697825,309396181,gps,2,1,47.472309143333334,19.063338536666667,149.534,17.305600000000002,0.0,0.0,0.0,17.305600000000002,0.0,0.0,0.0,276.88960000000003,1
2025/10/17 12:43:45.559513571,1760697825,559300035,gps,2,1,47.47230686666666,19.063339363333334,149.542,17.305600000000002,0.0,0.0,0.0,17.305600000000002,0.0,0.0,0.0,276.88960000000003,1
2025/10/17 12:43:45.810896351,1760697825,810440219,gps,2,1,47.472304021666666,19.063340053333334,149.505,17.305600000000002,0.0,0.0,0.0,17.305600000000002,0.0,0.0,0.0,276.88960000000003,1
2025/10/17 12:43:46.67818439,1760697826,67451050,gps,2,1,47.47230096166667,19.063340718333333,149.463,17.305600000000002,0.0,0.0,0.0,17.305600000000002,0.0,0.0,0.0,276.88960000000003,1
2025/10/17 12:43:46.312481874,1760697826,312194096,gps,2,1,47.47229775666667,19.063341618333332,149.452,17.305600000000002,0.0,0.0,0.0,17.305600000000002,0.0,0.0,0.0,276.88960000000003,1
2025/10/17 12:43:46.567303983,1760697826,567000180,gps,2,1,47.47229475333334,19.063342395,149.417,17.305600000000002,0.0,0.0,0.0,17.305600000000002,0.0,0.0,0.0,276.88960000000003,1
2025/10/17 12:43:46.815221198,1760697826,814803980,gps,2,1,47.47229184166667,19.063343578333335,149.41199999999998,17.305600000000002,0.0,0.0,0.0,17.305600000000002,0.0,0.0,0.0,276.88960000000003,1
2025/10/17 12:43:47.66195494,1760697827,65826242,gps,2,1,47.47228930333333,19.063344225,149.40800000000002,17.305600000000002,0.0,0.0,0.0,17.305600000000002,0.0,0.0,0.0,276.88960000000003,1
2025/10/17 12:43:47.311584802,1760697827,311300532,gps,2,1,47.472286993333334,19.06334502,149.393,17.305600000000002,0.0,0.0,0.0,17.305600000000002,0.0,0.0,0.0,276.88960000000003,1
2025/10/17 12:43:47.561359434,1760697827,560940575,gps,2,1,47.472284976666664,19.06334568,149.37900000000002,17.305600000000002,0.0,0.0,0.0,17.305600000000002,0.0,0.0,0.0,276.88960000000003,1
2025/10/17 12:43:47.811029656,1760697827,810674831,gps,2,1,47.472283153333336,19.063346178333333,149.386,17.305600000000002,0.0,0.0,0.0,17.305600000000002,0.0,0.0,0.0,276.88960000000003,1
2025/10/17 12:43:48.67053988,1760697828,66719215,gps,2,1,47.472281435,19.063346715,149.392,17.305600000000002,0.0,0.0,0.0,17.305600000000002,0.0,0.0,0.0,276.88960000000003,1
2025/10/17 12:43:48.310151206,1760697828,309714489,gps,2,1,47.472279791666665,19.063347355,149.401,17.305600000000002,0.0,0.0,0.0,17.305600000000002,0.0,0.0,0.0,276.88960000000003,1
2025/10/17 12:43:48.570688073,1760697828,570253439,gps,2,1,47.472278275,19.06334762,149.39499999999998,17.305600000000002,0.0,0.0,0.0,17.305600000000002,0.0,0.0,0.0,276.88960000000003,1
2025/10/17 12:43:48.810605212,1760697828,810114422,gps,2,1,47.47227670666667,19.063348405,149.439,17.305600000000002,0.0,0.0,0.0,17.305600000000002,0.0,0.0,0.0,276.88960000000003,1
2025/10/17 12:43:49.67324073,1760697829,67012217,gps,2,1,47.472274925,19.063349313333333,149.49,17.305600000000002,0.0,0.0,0.0,17.305600000000002,0.0,0.0,0.0,276.88960000000003,1
2025/10/17 12:43:49.308740775,1760697829,308523928,gps,2,1,47.47227333166666,19.06334982,149.50799999999998,17.305600000000002,0.0,0.0,0.0,17.305600000000002,0.0,0.0,0.0,276.88960000000003,1
2025/10/17 12:43:49.561062703,1760697829,560912615,gps,2,1,47.47227152166667,19.063350348333334,149.519,17.305600000000002,0.0,0.0,0.0,17.305600000000002,0.0,0.0,0.0,276.88960000000003,1
2025/10/17 12:43:49.810737031,1760697829,810485157,gps,2,1,47.472269715,19.06335137,149.552,17.305600000000002,0.0,0.0,0.0,17.305600000000002,0.0,0.0,0.0,276.88960000000003,1
2025/10/17 12:43:50.67172228,1760697830,66816799,gps,2,1,47.47226791666667,19.063351948333334,149.547,17.305600000000002,0.0,0.0,0.0,17.305600000000002,0.0,0.0,0.0,276.88960000000003,1
2025/10/17 12:43:50.313139404,1760697830,312750799,gps,2,1,47.47226594333333,19.063352481666666,149.572,17.305600000000002,0.0,0.0,0.0,17.305600000000002,0.0,0.0,0.0,276.88960000000003,1
2025/10/17 12:43:50.572884059,1760697830,572276759,gps,2,1,47.472264063333334,19.063352763333334,149.575,20.430399999999995,0.0,0.0,0.0,20.430399999999995,0.0,0.0,0.0,326.8863999999999,1
2025/10/17 12:43:50.808415570,1760697830,808071083,gps,2,1,47.472262148333336,19.063353641666666,149.58100000000002,17.305600000000002,0.0,0.0,0.0,17.305600000000002,0.0,0.0,0.0,276.88960000000003,1
2025/10/17 12:43:51.59533511,1760697831,59146326,gps,2,1,47.4722605,19.063353991666666,149.558,17.305600000000002,0.0,0.0,0.0,17.305600000000002,0.0,0.0,0.0,276.88960000000003,1
2025/10/17 12:43:51.309873446,1760697831,309606736,gps,2,1,47.472258735,19.063354455,149.56799999999998,17.305600000000002,0.0,0.0,0.0,17.305600000000002,0.0,0.0,0.0,276.88960000000003,1
2025/10/17 12:43:51.559152210,1760697831,558864772,gps,2,1,47.47225689166667,19.063355173333335,149.56799999999998,17.305600000000002,0.0,0.0,0.0,17.305600000000002,0.0,0.0,0.0,276.88960000000003,1
2025/10/17 12:43:51.808498977,1760697831,808313722,gps,2,1,47.47225510333333,19.063355783333332,149.542,17.305600000000002,0.0,0.0,0.0,17.305600000000002,0.0,0.0,0.0,276.88960000000003,1
2025/10/17 12:43:52.64186303,1760697832,64015287,gps,2,1,47.47225308833333,19.063356743333333,149.553,17.305600000000002,0.0,0.0,0.0,17.305600000000002,0.0,0.0,0.0,276.88960000000003,1
2025/10/17 12:43:52.305880661,1760697832,305757512,gps,2,1,47.472251085,19.063357331666666,149.56799999999998,17.305600000000002,0.0,0.0,0.0,17.305600000000002,0.0,0.0,0.0,276.88960000000003,1
2025/10/17 12:43:52.566555393,1760697832,566404392,gps,2,1,47.472249355,19.063357601666667,149.56,17.305600000000002,0.0,0.0,0.0,17.305600000000002,0.0,0.0,0.0,276.88960000000003,1
2025/10/17 12:43:52.809967369,1760697832,809462297,gps,2,1,47.47224755333333,19.063358446666665,149.59199999999998,17.305600000000002,0.0,0.0,0.0,17.305600000000002,0.0,0.0,0.0,276.88960000000003,1
2025/10/17 12:43:53.67154311,1760697833,67036094,gps,2,1,47.47224597833333,19.063359368333334,149.56900000000002,17.305600000000002,0.0,0.0,0.0,17.305600000000002,0.0,0.0,0.0,276.88960000000003,1
2025/10/17 12:43:53.306325877,1760697833,306141920,gps,2,1,47.472244185,19.063359686666665,149.576,17.305600000000002,0.0,0.0,0.0,17.305600000000002,0.0,0.0,0.0,276.88960000000003,1
2025/10/17 12:43:53.555955320,1760697833,555841915,gps,2,1,47.47224232,19.06336031,149.582,17.305600000000002,0.0,0.0,0.0,17.305600000000002,0.0,0.0,0.0,276.88960000000003,1
2025/10/17 12:43:53.804766202,1760697833,804655646,gps,2,1,47.472240516666666,19.0633605,149.552,17.305600000000002,0.0,0.0,0.0,17.305600000000002,0.0,0.0,0.0,276.88960000000003,1
2025/10/17 12:43:54.64402090,1760697834,64251418,gps,2,1,47.472238686666664,19.063361115,149.546,17.305600000000002,0.0,0.0,0.0,17.305600000000002,0.0,0.0,0.0,276.88960000000003,1
2025/10/17 12:43:54.305333910,1760697834,305216342,gps,2,1,47.47223711833333,19.063361593333333,149.55700000000002,17.305600000000002,0.0,0.0,0.0,17.305600000000002,0.0,0.0,0.0,276.88960000000003,1
2025/10/17 12:43:54.565965345,1760697834,565807753,gps,2,1,47.47223546,19.063362628333334,149.587,17.305600000000002,0.0,0.0,0.0,17.305600000000002,0.0,0.0,0.0,276.88960000000003,1
2025/10/17 12:43:54.806447250,1760697834,806336914,gps,2,1,47.47223394833333,19.063363251666665,149.572,17.305600000000002,0.0,0.0,0.0,17.305600000000002,0.0,0.0,0.0,276.88960000000003,1
2025/10/17 12:43:55.66279492,1760697835,65938873,gps,2,1,47.472232328333334,19.06336372333333,149.58100000000002,17.305600000000002,0.0,0.0,0.0,17.305600000000002,0.0,0.0,0.0,276.88960000000003,1
2025/10/17 12:43:55.305729084,1760697835,305290403,gps,2,1,47.472230753333335,19.063364015,149.55,17.305600000000002,0.0,0.0,0.0,17.305600000000002,0.0,0.0,0.0,276.88960000000003,1
2025/10/17 12:43:55.554391301,1760697835,554081922,gps,2,1,47.472229085,19.06336494,149.566,17.305600000000002,0.0,0.0,0.0,17.305600000000002,0.0,0.0,0.0,276.88960000000003,1
2025/10/17 12:43:55.807632009,1760697835,807246274,gps,2,1,47.47222756,19.063365615,149.588,17.305600000000002,0.0,0.0,0.0,17.305600000000002,0.0,0.0,0.0,276.88960000000003,1
2025/10/17 12:43:56.61839433,1760697836,61444527,gps,2,1,47.47222597,19.063366055,149.61599999999999,17.305600000000002,0.0,0.0,0.0,17.305600000000002,0.0,0.0,0.0,276.88960000000003,1
2025/10/17 12:43:56.310088376,1760697836,309687199,gps,2,1,47.47222451166667,19.06336647,149.61700000000002,17.305600000000002,0.0,0.0,0.0,17.305600000000002,0.0,0.0,0.0,276.88960000000003,1
2025/10/17 12:43:56.566882333,1760697836,566472566,gps,2,1,47.472223125,19.063366553333335,149.555,17.305600000000002,0.0,0.0,0.0,17.305600000000002,0.0,0.0,0.0,276.88960000000003,1
2025/10/17 12:43:56.808710592,1760697836,808301153,gps,2,1,47.47222152166667,19.063367263333333,149.572,17.305600000000002,0.0,0.0,0.0,17.305600000000002,0.0,0.0,0.0,276.88960000000003,1
2025/10/17 12:43:57.62351513,1760697837,61990353,gps,2,1,47.47221999,19.063367765,149.586,17.305600000000002,0.0,0.0,0.0,17.305600000000002,0.0,0.0,0.0,276.88960000000003,1
2025/10/17 12:43:57.307359380,1760697837,306993289,gps,2,1,47.4722185,19.06336818833333,149.572,17.305600000000002,0.0,0.0,0.0,17.305600000000002,0.0,0.0,0.0,276.88960000000003,1
2025/10/17 12:43:57.557795732,1760697837,557441758,gps,2,1,47.47221685833333,19.063368493333332,149.58100000000002,17.305600000000002,0.0,0.0,0.0,17.305600000000002,0.0,0.0,0.0,276.88960000000003,1
2025/10/17 12:43:57.812733005,1760697837,812259999,gps,2,1,47.472215265,19.0633686,149.527,17.305600000000002,0.0,0.0,0.0,17.305600000000002,0.0,0.0,0.0,276.88960000000003,1
2025/10/17 12:43:58.67843175,1760697838,67553148,gps,2,1,47.47221373166666,19.063368681666667,149.487,17.305600000000002,0.0,0.0,0.0,17.305600000000002,0.0,0.0,0.0,276.88960000000003,1
2025/10/17 12:43:58.307372806,1760697838,307008467,gps,2,1,47.47221217,19.06336912,149.44799999999998,17.305600000000002,0.0,0.0,0.0,17.305600000000002,0.0,0.0,0.0,276.88960000000003,1
2025/10/17 12:43:58.573471503,1760697838,573144981,gps,2,1,47.47221046,19.06336924,149.43099999999998,17.305600000000002,0.0,0.0,0.0,17.305600000000002,0.0,0.0,0.0,276.88960000000003,1
2025/10/17 12:43:58.813579279,1760697838,813003172,gps,2,1,47.47220883166667,19.063370661666667,149.481,17.305600000000002,0.0,0.0,0.0,17.305600000000002,0.0,0.0,0.0,276.88960000000003,1
2025/10/17 12:43:59.65473548,1760697839,65198730,gps,2,1,47.472207358333335,19.063371466666666,149.523,17.305600000000002,0.0,0.0,0.0,17.305600000000002,0.0,0.0,0.0,276.88960000000003,1
2025/10/17 12:43:59.309674519,1760697839,309374359,gps,2,1,47.47220581333333,19.06337192333333,149.53199999999998,17.305600000000002,0.0,0.0,0.0,17.305600000000002,0.0,0.0,0.0,276.88960000000003,1
2025/10/17 12:43:59.558856865,1760697839,558486289,gps,2,1,47.47220415333334,19.063372615,149.541,17.305600000000002,0.0,0.0,0.0,17.305600000000002,0.0,0.0,0.0,276.88960000000003,1
2025/10/17 12:43:59.808915538,1760697839,808579609,gps,2,1,47.472202698333334,19.063373181666666,149.539,17.305600000000002,0.0,0.0,0.0,17.305600000000002,0.0,0.0,0.0,276.88960000000003,1
2025/10/17 12:44:00.58917014,1760697840,58542141,gps,2,1,47.472201653333336,19.06337405,149.579,17.305600000000002,0.0,0.0,0.0,17.305600000000002,0.0,0.0,0.0,276.88960000000003,1
2025/10/17 12:44:00.310860509,1760697840,310507549,gps,2,1,47.47220090166667,19.063373965,149.562,17.305600000000002,0.0,0.0,0.0,17.305600000000002,0.0,0.0,0.0,276.88960000000003,1
2025/10/17 12:44:00.570139640,1760697840,569748745,gps,2,1,47.47220018833333,19.063373908333332,149.553,17.305600000000002,0.0,0.0,0.0,17.305600000000002,0.0,0.0,0.0,276.88960000000003,1
2025/10/17 12:44:00.811362808,1760697840,811076462,gps,2,1,47.47219988,19.063374385,149.542,17.305600000000002,0.0,0.0,0.0,17.305600000000002,0.0,0.0,0.0,276.88960000000003,1
2025/10/17 12:44:01.68307441,1760697841,67984239,gps,2,1,47.47219983,19.063374663333335,149.538,17.305600000000002,0.0,0.0,0.0,17.305600000000002,0.0,0.0,0.0,276.88960000000003,1
2025/10/17 12:44:01.309628537,1760697841,309196230,gps,2,1,47.47219989166667,19.06337467,149.527,17.305600000000002,0.0,0.0,0.0,17.305600000000002,0.0,0.0,0.0,276.88960000000003,1
2025/10/17 12:44:01.563787635,1760697841,563329298,gps,2,1,47.472199635,19.063374736666667,149.511,17.305600000000002,0.0,0.0,0.0,17.305600000000002,0.0,0.0,0.0,276.88960000000003,1
2025/10/17 12:44:01.810555909,1760697841,810097402,gps,2,1,47.47219905,19.063375038333334,149.499,17.305600000000002,0.0,0.0,0.0,17.305600000000002,0.0,0.0,0.0,276.88960000000003,1
2025/10/17 12:44:02.62006754,1760697842,61870025,gps,2,1,47.47219810166666,19.063375023333332,149.477,20.430399999999995,0.0,0.0,0.0,20.430399999999995,0.0,0.0,0.0,326.8863999999999,1
2025/10/17 12:44:02.304408060,1760697842,304325092,gps,2,1,47.47219689,19.063375763333333,149.505,20.430399999999995,0.0,0.0,0.0,20.430399999999995,0.0,0.0,0.0,326.8863999999999,1
2025/10/17 12:44:02.563809532,1760697842,563607690,gps,2,1,47.47219542166667,19.063376381666668,149.539,20.430399999999995,0.0,0.0,0.0,20.430399999999995,0.0,0.0,0.0,326.8863999999999,1
2025/10/17 12:44:02.799769985,1760697842,799676578,gps,2,1,47.472193573333335,19.063376826666666,149.516,20.430399999999995,0.0,0.0,0.0,20.430399999999995,0.0,0.0,0.0,326.8863999999999,1
2025/10/17 12:44:03.59363704,1760697843,59244399,gps,2,1,47.47219165333333,19.063377036666665,149.48000000000002,20.430399999999995,0.0,0.0,0.0,20.430399999999995,0.0,0.0,0.0,326.8863999999999,1
2025/10/17 12:44:03.307278052,1760697843,306924194,gps,2,1,47.47218963833333,19.063377751666668,149.459,20.430399999999995,0.0,0.0,0.0,20.430399999999995,0.0,0.0,0.0,326.8863999999999,1
2025/10/17 12:44:03.558380173,1760697843,558245482,gps,2,1,47.472187595,19.063378448333335,149.439,20.430399999999995,0.0,0.0,0.0,20.430399999999995,0.0,0.0,0.0,326.8863999999999,1
2025/10/17 12:44:03.809002284,1760697843,808863670,gps,2,1,47.47218560333334,19.0633789,149.437,20.430399999999995,0.0,0.0,0.0,20.430399999999995,0.0,0.0,0.0,326.8863999999999,1
2025/10/17 12:44:04.60932915,1760697844,60734400,gps,2,1,47.47218376,19.06337956,149.421,20.430399999999995,0.0,0.0,0.0,20.430399999999995,0.0,0.0,0.0,326.8863999999999,1
2025/10/17 12:44:04.305430075,1760697844,305281212,gps,2,1,47.472181903333336,19.06338032,149.423,17.305600000000002,0.0,0.0,0.0,17.305600000000002,0.0,0.0,0.0,276.88960000000003,1
2025/10/17 12:44:04.561711232,1760697844,561579195,gps,2,1,47.47218012166667,19.063380993333332,149.427,20.430399999999995,0.0,0.0,0.0,20.430399999999995,0.0,0.0,0.0,326.8863999999999,1
2025/10/17 12:44:04.808513549,1760697844,808140738,gps,2,1,47.472178605,19.063381835,149.445,20.430399999999995,0.0,0.0,0.0,20.430399999999995,0.0,0.0,0.0,326.8863999999999,1
2025/10/17 12:44:05.64849239,1760697845,64430458,gps,2,1,47.47217732,19.063382111666666,149.451,20.430399999999995,0.0,0.0,0.0,20.430399999999995,0.0,0.0,0.0,326.8863999999999,1
2025/10/17 12:44:05.308976832,1760697845,308668680,gps,2,1,47.472176233333336,19.063382813333334,149.459,20.430399999999995,0.0,0.0,0.0,20.430399999999995,0.0,0.0,0.0,326.8863999999999,1
2025/10/17 12:44:05.561450716,1760697845,561038786,gps,2,1,47.472175285,19.063383235,149.46699999999998,17.305600000000002,0.0,0.0,0.0,17.305600000000002,0.0,0.0,0.0,276.88960000000003,1
2025/10/17 12:44:05.810966685,1760697845,810447260,gps,2,1,47.472174063333334,19.063384461666665,149.539,17.305600000000002,0.0,0.0,0.0,17.305600000000002,0.0,0.0,0.0,276.88960000000003,1
2025/10/17 12:44:06.67321874,1760697846,66961931,gps,2,1,47.472172535,19.063384878333334,149.54,17.305600000000002,0.0,0.0,0.0,17.305600000000002,0.0,0.0,0.0,276.88960000000003,1
2025/10/17 12:44:06.310323344,1760697846,309861433,gps,2,1,47.47217103166667,19.063385731666667,149.55599999999998,17.305600000000002,0.0,0.0,0.0,17.305600000000002,0.0,0.0,0.0,276.88960000000003,1
2025/10/17 12:44:06.573674028,1760697846,573395326,gps,2,1,47.47216931,19.063386216666668,149.587,17.305600000000002,0.0,0.0,0.0,17.305600000000002,0.0,0.0,0.0,276.88960000000003,1
2025/10/17 12:44:06.813192307,1760697846,812799116,gps,2,1,47.472167641666665,19.06338717,149.639,17.305600000000002,0.0,0.0,0.0,17.305600000000002,0.0,0.0,0.0,276.88960000000003,1
2025/10/17 12:44:07.66463448,1760697847,66044773,gps,2,1,47.47216597333333,19.063387831666667,149.664,17.305600000000002,0.0,0.0,0.0,17.305600000000002,0.0,0.0,0.0,276.88960000000003,1
2025/10/17 12:44:07.307724709,1760697847,307045726,gps,2,1,47.472164095,19.063388576666668,149.697,17.305600000000002,0.0,0.0,0.0,17.305600000000002,0.0,0.0,0.0,276.88960000000003,1
2025/10/17 12:44:07.562054078,1760697847,561624677,gps,2,1,47.47216257833333,19.063388951666667,149.67000000000002,17.305600000000002,0.0,0.0,0.0,17.305600000000002,0.0,0.0,0.0,276.88960000000003,1
2025/10/17 12:44:07.807608416,1760697847,807238953,gps,2,1,47.472160781666666,19.063389485,149.677,17.305600000000002,0.0,0.0,0.0,17.305600000000002,0.0,0.0,0.0,276.88960000000003,1
2025/10/17 12:44:08.63677322,1760697848,63485512,gps,2,1,47.47215903166666,19.063389583333333,149.656,17.305600000000002,0.0,0.0,0.0,17.305600000000002,0.0,0.0,0.0,276.88960000000003,1
2025/10/17 12:44:08.313618781,1760697848,313269186,gps,2,1,47.47215737,19.063389765,149.64,17.305600000000002,0.0,0.0,0.0,17.305600000000002,0.0,0.0,0.0,276.88960000000003,1
2025/10/17 12:44:08.570348955,1760697848,570039448,gps,2,1,47.47215611166666,19.063390318333333,149.65800000000002,17.305600000000002,0.0,0.0,0.0,17.305600000000002,0.0,0.0,0.0,276.88960000000003,1
2025/10/17 12:44:08.811436770,1760697848,811163467,gps,2,1,47.472155175,19.063390291666668,149.591,17.305600000000002,0.0,0.0,0.0,17.305600000000002,0.0,0.0,0.0,276.88960000000003,1
2025/10/17 12:44:09.66563207,1760697849,66220366,gps,2,1,47.472154493333335,19.063390241666667,149.554,17.305600000000002,0.0,0.0,0.0,17.305600000000002,0.0,0.0,0.0,276.88960000000003,1
2025/10/17 12:44:09.314238312,1760697849,313884330,gps,2,1,47.47215364833333,19.063390461666668,149.524,17.305600000000002,0.0,0.0,0.0,17.305600000000002,0.0,0.0,0.0,276.88960000000003,1
2025/10/17 12:44:09.561408555,1760697849,561260676,gps,2,1,47.47215248166667,19.063390651666666,149.511,17.305600000000002,0.0,0.0,0.0,17.305600000000002,0.0,0.0,0.0,276.88960000000003,1
2025/10/17 12:44:09.813276335,1760697849,812912561,gps,2,1,47.472151286666666,19.063390901666665,149.495,17.305600000000002,0.0,0.0,0.0,17.305600000000002,0.0,0.0,0.0,276.88960000000003,1
2025/10/17 12:44:10.70601272,1760697850,70268586,gps,2,1,47.47214967666667,19.063391426666666,149.494,17.305600000000002,0.0,0.0,0.0,17.305600000000002,0.0,0.0,0.0,276.88960000000003,1
2025/10/17 12:44:10.312440917,1760697850,312137379,gps,2,1,47.47214778,19.06339182,149.49,17.305600000000002,0.0,0.0,0.0,17.305600000000002,0.0,0.0,0.0,276.88960000000003,1
2025/10/17 12:44:10.573073127,1760697850,572768138,gps,2,1,47.472145875,19.063392205,149.488,17.305600000000002,0.0,0.0,0.0,17.305600000000002,0.0,0.0,0.0,276.88960000000003,1
2025/10/17 12:44:10.812271898,1760697850,811936689,gps,2,1,47.472143816666666,19.063392561666667,149.503,17.305600000000002,0.0,0.0,0.0,17.305600000000002,0.0,0.0,0.0,276.88960000000003,1
2025/10/17 12:44:11.68415317,1760697851,68004760,gps,2,1,47.47214188,19.06339309333333,149.499,17.305600000000002,0.0,0.0,0.0,17.305600000000002,0.0,0.0,0.0,276.88960000000003,1
2025/10/17 12:44:11.312456575,1760697851,312080496,gps,2,1,47.472140016666664,19.063393526666665,149.49,17.305600000000002,0.0,0.0,0.0,17.305600000000002,0.0,0.0,0.0,276.88960000000003,1
2025/10/17 12:44:11.563974012,1760697851,563689143,gps,2,1,47.47213822166667,19.063394066666667,149.487,17.305600000000002,0.0,0.0,0.0,17.305600000000002,0.0,0.0,0.0,276.88960000000003,1
2025/10/17 12:44:11.808886067,1760697851,808490295,gps,2,1,47.472136245,19.063395093333334,149.531,17.305600000000002,0.0,0.0,0.0,17.305600000000002,0.0,0.0,0.0,276.88960000000003,1
2025/10/17 12:44:12.69384325,1760697852,69061891,gps,2,1,47.472134563333334,19.063395705,149.543,17.305600000000002,0.0,0.0,0.0,17.305600000000002,0.0,0.0,0.0,276.88960000000003,1
2025/10/17 12:44:12.312462775,1760697852,311973665,gps,2,1,47.47213280166667,19.063396415,149.558,17.305600000000002,0.0,0.0,0.0,17.305600000000002,0.0,0.0,0.0,276.88960000000003,1
2025/10/17 12:44:12.570903792,1760697852,570405849,gps,2,1,47.472131053333335,19.063397051666666,149.575,17.305600000000002,0.0,0.0,0.0,17.305600000000002,0.0,0.0,0.0,276.88960000000003,1
2025/10/17 12:44:12.814283455,1760697852,813934993,gps,2,1,47.47212921333333,19.063397556666665,149.565,17.305600000000002,0.0,0.0,0.0,17.305600000000002,0.0,0.0,0.0,276.88960000000003,1
2025/10/17 12:44:13.71684668,1760697853,71289889,gps,2,1,47.47212734833333,19.063398155,149.559,17.305600000000002,0.0,0.0,0.0,17.305600000000002,0.0,0.0,0.0,276.88960000000003,1
2025/10/17 12:44:13.311445343,1760697853,311044709,gps,2,1,47.47212574666667,19.06339849,149.536,17.305600000000002,0.0,0.0,0.0,17.305600000000002,0.0,0.0,0.0,276.88960000000003,1
2025/10/17 12:44:13.558888109,1760697853,558532075,gps,2,1,47.47212410833333,19.063399031666666,149.524,17.305600000000002,0.0,0.0,0.0,17.305600000000002,0.0,0.0,0.0,276.88960000000003,1
2025/10/17 12:44:13.811819167,1760697853,811459815,gps,2,1,47.47212237,19.063399691666667,149.513,17.305600000000002,0.0,0.0,0.0,17.305600000000002,0.0,0.0,0.0,276.88960000000003,1
2025/10/17 12:44:14.67346523,1760697854,66984282,gps,2,1,47.47212064166666,19.06340025,149.498,17.305600000000002,0.0,0.0,0.0,17.305600000000002,0.0,0.0,0.0,276.88960000000003,1
2025/10/17 12:44:14.311762230,1760697854,311289969,gps,2,1,47.47211888166667,19.063400833333333,149.5,17.305600000000002,0.0,0.0,0.0,17.305600000000002,0.0,0.0,0.0,276.88960000000003,1
2025/10/17 12:44:14.570348753,1760697854,569996637,gps,2,1,47.472117145,19.063401921666667,149.542,17.305600000000002,0.0,0.0,0.0,17.305600000000002,0.0,0.0,0.0,276.88960000000003,1
2025/10/17 12:44:14.812965895,1760697854,812571099,gps,2,1,47.472115355,19.063402563333334,149.55700000000002,17.305600000000002,0.0,0.0,0.0,17.305600000000002,0.0,0.0,0.0,276.88960000000003,1
2025/10/17 12:44:15.68298347,1760697855,67994404,gps,2,1,47.472113633333336,19.063403178333335,149.56900000000002,17.305600000000002,0.0,0.0,0.0,17.305600000000002,0.0,0.0,0.0,276.88960000000003,1
2025/10/17 12:44:15.310048503,1760697855,309600581,gps,2,1,47.47211192333334,19.06340367,149.586,17.305600000000002,0.0,0.0,0.0,17.305600000000002,0.0,0.0,0.0,276.88960000000003,1
2025/10/17 12:44:15.561569871,1760697855,561274505,gps,2,1,47.47211022333333,19.06340441,149.588,17.305600000000002,0.0,0.0,0.0,17.305600000000002,0.0,0.0,0.0,276.88960000000003,1
2025/10/17 12:44:15.811588157,1760697855,811154283,gps,2,1,47.472108685,19.063404768333335,149.543,17.305600000000002,0.0,0.0,0.0,17.305600000000002,0.0,0.0,0.0,276.88960000000003,1
2025/10/17 12:44:16.65007520,1760697856,64666934,gps,2,1,47.47210690166666,19.06340565,149.572,33.64,0.0,0.0,0.0,33.64,0.0,0.0,0.0,538.24,1
2025/10/17 12:44:16.306323831,1760697856,306041881,gps,2,1,47.472105205,19.063406446666665,149.574,17.305600000000002,0.0,0.0,0.0,17.305600000000002,0.0,0.0,0.0,276.88960000000003,1
2025/10/17 12:44:16.569390758,1760697856,569021686,gps,2,1,47.47210352333333,19.063407096666666,149.576,17.305600000000002,0.0,0.0,0.0,17.305600000000002,0.0,0.0,0.0,276.88960000000003,1
2025/10/17 12:44:16.809567186,1760697856,809215415,gps,2,1,47.472101781666666,19.063407625,149.563,17.305600000000002,0.0,0.0,0.0,17.305600000000002,0.0,0.0,0.0,276.88960000000003,1
2025/10/17 12:44:17.65938579,1760697857,65807716,gps,2,1,47.47209992,19.063408403333334,149.583,17.305600000000002,0.0,0.0,0.0,17.305600000000002,0.0,0.0,0.0,276.88960000000003,1
2025/10/17 12:44:17.311340442,1760697857,310993894,gps,2,1,47.47209839,19.063409178333334,149.578,17.305600000000002,0.0,0.0,0.0,17.305600000000002,0.0,0.0,0.0,276.88960000000003,1
2025/10/17 12:44:17.560647109,1760697857,560284724,gps,2,1,47.472097246666664,19.063409496666665,149.54500000000002,17.305600000000002,0.0,0.0,0.0,17.305600000000002,0.0,0.0,0.0,276.88960000000003,1
2025/10/17 12:44:17.810583115,1760697857,810207731,gps,2,1,47.472096353333335,19.063409946666667,149.554,17.305600000000002,0.0,0.0,0.0,17.305600000000002,0.0,0.0,0.0,276.88960000000003,1
2025/10/17 12:44:18.62099168,1760697858,61703594,gps,2,1,47.472095683333336,19.063410348333335,149.578,17.305600000000002,0.0,0.0,0.0,17.305600000000002,0.0,0.0,0.0,276.88960000000003,1
2025/10/17 12:44:18.310735142,1760697858,310227138,gps,2,1,47.47209519,19.063410611666665,149.58499999999998,17.305600000000002,0.0,0.0,0.0,17.305600000000002,0.0,0.0,0.0,276.88960000000003,1
2025/10/17 12:44:18.571535545,1760697858,571213736,gps,2,1,47.472095005,19.06341064,149.59,17.305600000000002,0.0,0.0,0.0,17.305600000000002,0.0,0.0,0.0,276.88960000000003,1
2025/10/17 12:44:18.812243941,1760697858,811890127,gps,2,1,47.472094731666665,19.063410726666667,149.59199999999998,17.305600000000002,0.0,0.0,0.0,17.305600000000002,0.0,0.0,0.0,276.88960000000003,1
2025/10/17 12:44:19.71522645,1760697859,71160528,gps,2,1,47.47209404,19.063410915,149.588,33.64,0.0,0.0,0.0,33.64,0.0,0.0,0.0,538.24,1
2025/10/17 12:44:19.310249098,1760697859,309985510,gps,2,1,47.472093091666665,19.06341125,149.577,33.64,0.0,0.0,0.0,33.64,0.0,0.0,0.0,538.24,1
2025/10/17 12:44:19.566042288,1760697859,565499404,gps,2,1,47.47209186166667,19.063411701666666,149.574,33.64,0.0,0.0,0.0,33.64,0.0,0.0,0.0,538.24,1
2025/10/17 12:44:19.812144778,1760697859,811803635,gps,2,1,47.47209089333333,19.063411775,149.575,17.305600000000002,0.0,0.0,0.0,17.305600000000002,0.0,0.0,0.0,276.88960000000003,1
2025/10/17 12:44:20.69516767,1760697860,69235907,gps,2,1,47.472090105,19.063411928333334,149.58100000000002,17.305600000000002,0.0,0.0,0.0,17.305600000000002,0.0,0.0,0.0,276.88960000000003,1
2025/10/17 12:44:20.313790929,1760697860,313482021,gps,2,1,47.47208957,19.063412158333332,149.587,17.305600000000002,0.0,0.0,0.0,17.305600000000002,0.0,0.0,0.0,276.88960000000003,1
2025/10/17 12:44:20.574379642,1760697860,574093259,gps,2,1,47.47208903833333,19.06341238,149.596,33.64,0.0,0.0,0.0,33.64,0.0,0.0,0.0,538.24,1
2025/10/17 12:44:20.810116548,1760697860,809780655,gps,2,1,47.47208805333333,19.063412568333334,149.6,33.64,0.0,0.0,0.0,33.64,0.0,0.0,0.0,538.24,1
2025/10/17 12:44:21.71705448,1760697861,71333727,gps,2,1,47.47208672833333,19.063413021666666,149.60899999999998,33.64,0.0,0.0,0.0,33.64,0.0,0.0,0.0,538.24,1
2025/10/17 12:44:21.312552751,1760697861,312166834,gps,2,1,47.47208518666667,19.063413666666666,149.603,33.64,0.0,0.0,0.0,33.64,0.0,0.0,0.0,538.24,1
2025/10/17 12:44:21.563958703,1760697861,563587069,gps,2,1,47.472083395,19.06341425,149.603,33.64,0.0,0.0,0.0,33.64,0.0,0.0,0.0,538.24,1
2025/10/17 12:44:21.813675857,1760697861,813293560,gps,2,1,47.47208135,19.063414851666668,149.589,33.64,0.0,0.0,0.0,33.64,0.0,0.0,0.0,538.24,1
2025/10/17 12:44:22.71221493,1760697862,70775971,gps,2,1,47.47207931,19.06341533,149.57299999999998,33.64,0.0,0.0,0.0,33.64,0.0,0.0,0.0,538.24,1
2025/10/17 12:44:22.314385546,1760697862,314047704,gps,2,1,47.47207726166667,19.0634164,149.58499999999998,17.305600000000002,0.0,0.0,0.0,17.305600000000002,0.0,0.0,0.0,276.88960000000003,1
2025/10/17 12:44:22.570129957,1760697862,569684027,gps,2,1,47.472075151666665,19.063416926666665,149.564,17.305600000000002,0.0,0.0,0.0,17.305600000000002,0.0,0.0,0.0,276.88960000000003,1
2025/10/17 12:44:22.813515519,1760697862,813146578,gps,2,1,47.47207302666666,19.063417628333333,149.56900000000002,17.305600000000002,0.0,0.0,0.0,17.305600000000002,0.0,0.0,0.0,276.88960000000003,1
2025/10/17 12:44:23.69504512,1760697863,69110746,gps,2,1,47.47207107333333,19.063418371666668,149.572,17.305600000000002,0.0,0.0,0.0,17.305600000000002,0.0,0.0,0.0,276.88960000000003,1
2025/10/17 12:44:23.315108365,1760697863,314670399,gps,2,1,47.472069065,19.063419053333334,149.58499999999998,17.305600000000002,0.0,0.0,0.0,17.305600000000002,0.0,0.0,0.0,276.88960000000003,1
2025/10/17 12:44:23.563666147,1760697863,563286278,gps,2,1,47.47206706666667,19.06341983,149.583,33.64,0.0,0.0,0.0,33.64,0.0,0.0,0.0,538.24,1
2025/10/17 12:44:23.813817108,1760697863,813335976,gps,2,1,47.472065113333336,19.063420563333334,149.598,33.64,0.0,0.0,0.0,33.64,0.0,0.0,0.0,538.24,1
2025/10/17 12:44:24.70616872,1760697864,70238661,gps,2,1,47.472063328333334,19.063421411666667,149.606,33.64,0.0,0.0,0.0,33.64,0.0,0.0,0.0,538.24,1
2025/10/17 12:44:24.315744211,1760697864,315444258,gps,2,1,47.472061585,19.063422051666667,149.615,33.64,0.0,0.0,0.0,33.64,0.0,0.0,0.0,538.24,1
2025/10/17 12:44:24.581170506,1760697864,581056053,gps,2,1,47.47205989,19.063422636666665,149.60899999999998,33.64,0.0,0.0,0.0,33.64,0.0,0.0,0.0,538.24,1
2025/10/17 12:44:24.817384905,1760697864,817045755,gps,2,1,47.472058473333334,19.063422935,149.601,33.64,0.0,0.0,0.0,33.64,0.0,0.0,0.0,538.24,1
2025/10/17 12:44:25.71620051,1760697865,71067069,gps,2,1,47.47205731,19.063423183333335,149.603,33.64,0.0,0.0,0.0,33.64,0.0,0.0,0.0,538.24,1
2025/10/17 12:44:25.312101558,1760697865,311688812,gps,2,1,47.47205631166667,19.063423556666667,149.613,33.64,0.0,0.0,0.0,33.64,0.0,0.0,0.0,538.24,1
2025/10/17 12:44:25.578376648,1760697865,578040875,gps,2,1,47.472055325,19.063423981666666,149.61599999999999,33.64,0.0,0.0,0.0,33.64,0.0,0.0,0.0,538.24,1
2025/10/17 12:44:25.818323078,1760697865,818232678,gps,2,1,47.47205423,19.063424345,149.61599999999999,33.64,0.0,0.0,0.0,33.64,0.0,0.0,0.0,538.24,1
2025/10/17 12:44:26.72421139,1760697866,72030057,gps,2,1,47.472053535,19.06342454,149.608,20.430399999999995,0.0,0.0,0.0,20.430399999999995,0.0,0.0,0.0,326.8863999999999,1
2025/10/17 12:44:26.319724886,1760697866,319042688,gps,2,1,47.47205292333334,19.06342479,149.612,20.430399999999995,0.0,0.0,0.0,20.430399999999995,0.0,0.0,0.0,326.8863999999999,1
2025/10/17 12:44:26.587654262,1760697866,587531684,gps,2,1,47.47205227833334,19.063424885,149.615,20.430399999999995,0.0,0.0,0.0,20.430399999999995,0.0,0.0,0.0,326.8863999999999,1
2025/10/17 12:44:26.814210778,1760697866,814080400,gps,2,1,47.472051283333336,19.063425213333332,149.60899999999998,20.430399999999995,0.0,0.0,0.0,20.430399999999995,0.0,0.0,0.0,326.8863999999999,1
2025/10/17 12:44:27.66335969,1760697867,66213939,gps,2,1,47.472050063333334,19.06342552,149.59699999999998,20.430399999999995,0.0,0.0,0.0,20.430399999999995,0.0,0.0,0.0,326.8863999999999,1
2025/10/17 12:44:27.310491174,1760697867,310355396,gps,2,1,47.472048476666664,19.063425941666665,149.603,45.697599999999994,0.0,0.0,0.0,45.697599999999994,0.0,0.0,0.0,731.1615999999999,1
2025/10/17 12:44:27.561091530,1760697867,560882831,gps,2,1,47.47204687833333,19.06342633,149.59300000000002,45.697599999999994,0.0,0.0,0.0,45.697599999999994,0.0,0.0,0.0,731.1615999999999,1
2025/10/17 12:44:27.813942409,1760697867,813822451,gps,2,1,47.47204501666667,19.063426865,149.59300000000002,17.305600000000002,0.0,0.0,0.0,17.305600000000002,0.0,0.0,0.0,276.88960000000003,1
2025/10/17 12:44:28.72164014,1760697868,71952308,gps,2,1,47.47204337666667,19.063427411666666,149.59300000000002,17.305600000000002,0.0,0.0,0.0,17.305600000000002,0.0,0.0,0.0,276.88960000000003,1
2025/10/17 12:44:28.313076352,1760697868,312866169,gps,2,1,47.472042,19.063427758333333,149.57999999999998,33.64,0.0,0.0,0.0,33.64,0.0,0.0,0.0,538.24,1
2025/10/17 12:44:28.586439224,1760697868,585781710,gps,2,1,47.47204030333333,19.063428243333334,149.57999999999998,17.305600000000002,0.0,0.0,0.0,17.305600000000002,0.0,0.0,0.0,276.88960000000003,1
2025/10/17 12:44:28.813975123,1760697868,813879244,gps,2,1,47.47203842333333,19.06342887,149.59,17.305600000000002,0.0,0.0,0.0,17.305600000000002,0.0,0.0,0.0,276.88960000000003,1
2025/10/17 12:44:29.76000508,1760697869,75611209,gps,2,1,47.47203695333334,19.06342928,149.588,17.305600000000002,0.0,0.0,0.0,17.305600000000002,0.0,0.0,0.0,276.88960000000003,1
2025/10/17 12:44:29.321477932,1760697869,321044136,gps,2,1,47.472035655,19.06342975,149.59,17.305600000000002,0.0,0.0,0.0,17.305600000000002,0.0,0.0,0.0,276.88960000000003,1
2025/10/17 12:44:29.571094503,1760697869,570731625,gps,2,1,47.47203470833333,19.063429955,149.59199999999998,17.305600000000002,0.0,0.0,0.0,17.305600000000002,0.0,0.0,0.0,276.88960000000003,1
2025/10/17 12:44:29.812942661,1760697869,812431785,gps,2,1,47.472033515,19.063430573333335,149.641,17.305600000000002,0.0,0.0,0.0,17.305600000000002,0.0,0.0,0.0,276.88960000000003,1
2025/10/17 12:44:30.74919599,1760697870,74588480,gps,2,1,47.472032265,19.063430838333332,149.641,33.64,0.0,0.0,0.0,33.64,0.0,0.0,0.0,538.24,1
2025/10/17 12:44:30.317600595,1760697870,317355717,gps,2,1,47.472031215,19.063431065,149.648,33.64,0.0,0.0,0.0,33.64,0.0,0.0,0.0,538.24,1
2025/10/17 12:44:30.583907475,1760697870,583498345,gps,2,1,47.472030035,19.063431306666665,149.649,33.64,0.0,0.0,0.0,33.64,0.0,0.0,0.0,538.24,1
2025/10/17 12:44:30.813863528,1760697870,813489984,gps,2,1,47.472028566666665,19.063431661666666,149.659,33.64,0.0,0.0,0.0,33.64,0.0,0.0,0.0,538.24,1
2025/10/17 12:44:31.69814390,1760697871,69362851,gps,2,1,47.472026915,19.06343187,149.653,45.697599999999994,0.0,0.0,0.0,45.697599999999994,0.0,0.0,0.0,731.1615999999999,1
2025/10/17 12:44:31.320017722,1760697871,319559055,gps,2,1,47.47202514333333,19.063432013333333,149.644,45.697599999999994,0.0,0.0,0.0,45.697599999999994,0.0,0.0,0.0,731.1615999999999,1
2025/10/17 12:44:31.565417949,1760697871,565143708,gps,2,1,47.472023138333334,19.06343256,149.642,45.697599999999994,0.0,0.0,0.0,45.697599999999994,0.0,0.0,0.0,731.1615999999999,1
2025/10/17 12:44:31.820354623,1760697871,819981568,gps,2,1,47.47202115166667,19.063433095,149.637,45.697599999999994,0.0,0.0,0.0,45.697599999999994,0.0,0.0,0.0,731.1615999999999,1
2025/10/17 12:44:32.69398812,1760697872,69318183,gps,2,1,47.472019116666665,19.063433301666667,149.644,45.697599999999994,0.0,0.0,0.0,45.697599999999994,0.0,0.0,0.0,731.1615999999999,1
2025/10/17 12:44:32.328016978,1760697872,327643609,gps,2,1,47.47201724166667,19.06343326,149.631,45.697599999999994,0.0,0.0,0.0,45.697599999999994,0.0,0.0,0.0,731.1615999999999,1
2025/10/17 12:44:32.598692508,1760697872,598412912,gps,2,1,47.47201553,19.063433436666667,149.627,34.105599999999995,0.0,0.0,0.0,34.105599999999995,0.0,0.0,0.0,545.6895999999999,1
2025/10/17 12:44:32.823487028,1760697872,823109732,gps,2,1,47.47201406166667,19.063433606666667,149.648,34.105599999999995,0.0,0.0,0.0,34.105599999999995,0.0,0.0,0.0,545.6895999999999,1
2025/10/17 12:44:33.77724595,1760697873,77430169,gps,2,1,47.472012655,19.063433821666667,149.676,34.105599999999995,0.0,0.0,0.0,34.105599999999995,0.0,0.0,0.0,545.6895999999999,1
2025/10/17 12:44:33.317160383,1760697873,316787920,gps,2,1,47.47201165833334,19.063433805,149.68599999999998,34.105599999999995,0.0,0.0,0.0,34.105599999999995,0.0,0.0,0.0,545.6895999999999,1
2025/10/17 12:44:33.566272365,1760697873,566075184,gps,2,1,47.47201087,19.063433908333334,149.68,34.105599999999995,0.0,0.0,0.0,34.105599999999995,0.0,0.0,0.0,545.6895999999999,1
2025/10/17 12:44:33.820028669,1760697873,819681606,gps,2,1,47.472010265,19.063433786666668,149.671,34.105599999999995,0.0,0.0,0.0,34.105599999999995,0.0,0.0,0.0,545.6895999999999,1
2025/10/17 12:44:34.76929481,1760697874,76785510,gps,2,1,47.47200971833333,19.06343401333333,149.692,34.105599999999995,0.0,0.0,0.0,34.105599999999995,0.0,0.0,0.0,545.6895999999999,1
2025/10/17 12:44:34.316506813,1760697874,316099324,gps,2,1,47.47200946,19.063434141666665,149.70999999999998,34.105599999999995,0.0,0.0,0.0,34.105599999999995,0.0,0.0,0.0,545.6895999999999,1
2025/10/17 12:44:34.592898458,1760697874,592738965,gps,2,1,47.472009245,19.063434281666666,149.72899999999998,34.105599999999995,0.0,0.0,0.0,34.105599999999995,0.0,0.0,0.0,545.6895999999999,1
2025/10/17 12:44:34.823812969,1760697874,823479821,gps,2,1,47.472008628333334,19.063434173333334,149.719,34.105599999999995,0.0,0.0,0.0,34.105599999999995,0.0,0.0,0.0,545.6895999999999,1
2025/10/17 12:44:35.75100284,1760697875,74645136,gps,2,1,47.47200794333333,19.06343433,149.726,34.105599999999995,0.0,0.0,0.0,34.105599999999995,0.0,0.0,0.0,545.6895999999999,1
2025/10/17 12:44:35.319452893,1760697875,318986059,gps,2,1,47.472007401666666,19.063434065,149.689,34.105599999999995,0.0,0.0,0.0,34.105599999999995,0.0,0.0,0.0,545.6895999999999,1
2025/10/17 12:44:35.569520543,1760697875,569076630,gps,2,1,47.47200718333333,19.063433741666667,149.64,34.105599999999995,0.0,0.0,0.0,34.105599999999995,0.0,0.0,0.0,545.6895999999999,1
2025/10/17 12:44:35.822023156,1760697875,821691787,gps,2,1,47.472007055,19.063433748333335,149.623,34.105599999999995,0.0,0.0,0.0,34.105599999999995,0.0,0.0,0.0,545.6895999999999,1
2025/10/17 12:44:36.71927721,1760697876,70598549,gps,2,1,47.472006883333336,19.063433803333332,149.615,34.105599999999995,0.0,0.0,0.0,34.105599999999995,0.0,0.0,0.0,545.6895999999999,1
2025/10/17 12:44:36.317377421,1760697876,317199081,gps,2,1,47.47200684333333,19.063433766666666,149.60500000000002,34.105599999999995,0.0,0.0,0.0,34.105599999999995,0.0,0.0,0.0,545.6895999999999,1
2025/10/17 12:44:36.590515562,1760697876,590363187,gps,2,1,47.47200659666667,19.063434021666666,149.61700000000002,34.105599999999995,0.0,0.0,0.0,34.105599999999995,0.0,0.0,0.0,545.6895999999999,1
2025/10/17 12:44:36.820211939,1760697876,819697538,gps,2,1,47.472006015,19.063434431666668,149.639,34.105599999999995,0.0,0.0,0.0,34.105599999999995,0.0,0.0,0.0,545.6895999999999,1
2025/10/17 12:44:37.76913802,1760697877,76506070,gps,2,1,47.47200510166667,19.063434438333335,149.631,34.105599999999995,0.0,0.0,0.0,34.105599999999995,0.0,0.0,0.0,545.6895999999999,1
2025/10/17 12:44:37.315250188,1760697877,314909477,gps,2,1,47.47200372166667,19.063434975,149.64999999999998,34.105599999999995,0.0,0.0,0.0,34.105599999999995,0.0,0.0,0.0,545.6895999999999,1
2025/10/17 12:44:37.566688169,1760697877,566407080,gps,2,1,47.47200189666667,19.063435616666666,149.683,34.105599999999995,0.0,0.0,0.0,34.105599999999995,0.0,0.0,0.0,545.6895999999999,1
2025/10/17 12:44:37.816140428,1760697877,815802961,gps,2,1,47.47199966833333,19.063436351666667,149.70600000000002,34.105599999999995,0.0,0.0,0.0,34.105599999999995,0.0,0.0,0.0,545.6895999999999,1
2025/10/17 12:44:38.77236467,1760697878,76902129,gps,2,1,47.47199728,19.063437415,149.733,34.105599999999995,0.0,0.0,0.0,34.105599999999995,0.0,0.0,0.0,545.6895999999999,1
2025/10/17 12:44:38.324979307,1760697878,324664376,gps,2,1,47.47199473,19.063438281666667,149.75400000000002,34.105599999999995,0.0,0.0,0.0,34.105599999999995,0.0,0.0,0.0,545.6895999999999,1
2025/10/17 12:44:38.595121874,1760697878,594993670,gps,2,1,47.471992101666665,19.063438845,149.737,34.105599999999995,0.0,0.0,0.0,34.105599999999995,0.0,0.0,0.0,545.6895999999999,1
2025/10/17 12:44:38.816252290,1760697878,815970096,gps,2,1,47.47198981,19.063439616666667,149.739,34.105599999999995,0.0,0.0,0.0,34.105599999999995,0.0,0.0,0.0,545.6895999999999,1
2025/10/17 12:44:39.76412517,1760697879,76097645,gps,2,1,47.471987858333335,19.063440038333333,149.726,34.105599999999995,0.0,0.0,0.0,34.105599999999995,0.0,0.0,0.0,545.6895999999999,1
2025/10/17 12:44:39.317437972,1760697879,317002278,gps,2,1,47.471986225,19.06344053833333,149.721,34.105599999999995,0.0,0.0,0.0,34.105599999999995,0.0,0.0,0.0,545.6895999999999,1
2025/10/17 12:44:39.568272593,1760697879,567987990,gps,2,1,47.471984778333336,19.063441235,149.72199999999998,34.105599999999995,0.0,0.0,0.0,34.105599999999995,0.0,0.0,0.0,545.6895999999999,1
2025/10/17 12:44:39.817790575,1760697879,817455530,gps,2,1,47.47198289,19.063441886666666,149.72899999999998,34.105599999999995,0.0,0.0,0.0,34.105599999999995,0.0,0.0,0.0,545.6895999999999,1
2025/10/17 12:44:40.74290628,1760697880,73775312,gps,2,1,47.47198087333334,19.063442321666667,149.733,34.105599999999995,0.0,0.0,0.0,34.105599999999995,0.0,0.0,0.0,545.6895999999999,1
2025/10/17 12:44:40.315777027,1760697880,315379403,gps,2,1,47.471979131666664,19.063442555,149.695,34.105599999999995,0.0,0.0,0.0,34.105599999999995,0.0,0.0,0.0,545.6895999999999,1
2025/10/17 12:44:40.580921146,1760697880,580594574,gps,2,1,47.471977601666666,19.063442971666667,149.677,34.105599999999995,0.0,0.0,0.0,34.105599999999995,0.0,0.0,0.0,545.6895999999999,1
