time,header_stamp_secs,header_stamp_nsecs,header_frame_id,status_status,status_service,latitude,longitude,altitude,position_covariance_0,position_covariance_1,position_covariance_2,position_covariance_3,position_covariance_4,position_covariance_5,position_covariance_6,position_covariance_7,position_covariance_8,position_covariance_type
2025/10/17 12:49:06.832028709,1760698146,831849704,gps,2,1,47.472064956666664,19.063384508333332,149.427,24.6016,0.0,0.0,0.0,24.6016,0.0,0.0,0.0,393.6256,1
2025/10/17 12:49:07.90785963,1760698147,90432672,gps,2,1,47.472064978333336,19.063384535,149.435,24.6016,0.0,0.0,0.0,24.6016,0.0,0.0,0.0,393.6256,1
2025/10/17 12:49:07.332457230,1760698147,332180544,gps,2,1,47.47206497,19.06338449,149.435,24.6016,0.0,0.0,0.0,24.6016,0.0,0.0,0.0,393.6256,1
2025/10/17 12:49:07.581812811,1760698147,581397622,gps,2,1,47.47206497,19.063384446666667,149.43599999999998,24.6016,0.0,0.0,0.0,24.6016,0.0,0.0,0.0,393.6256,1
2025/10/17 12:49:07.830304845,1760698147,829842290,gps,2,1,47.47206495166667,19.063384466666665,149.437,24.6016,0.0,0.0,0.0,24.6016,0.0,0.0,0.0,393.6256,1
2025/10/17 12:49:08.87306050,1760698148,86903732,gps,2,1,47.472064915,19.063384571666667,149.439,24.6016,0.0,0.0,0.0,24.6016,0.0,0.0,0.0,393.6256,1
2025/10/17 12:49:08.332640029,1760698148,332253043,gps,2,1,47.47206495333333,19.063384475,149.428,24.2064,0.0,0.0,0.0,24.2064,0.0,0.0,0.0,387.3024,1
2025/10/17 12:49:08.606307253,1760698148,605884585,gps,2,1,47.47206493666667,19.063384508333332,149.422,24.2064,0.0,0.0,0.0,24.2064,0.0,0.0,0.0,387.3024,1
2025/10/17 12:49:08.828142355,1760698148,827785496,gps,2,1,47.472064985,19.063384338333332,149.40699999999998,24.2064,0.0,0.0,0.0,24.2064,0.0,0.0,0.0,387.3024,1
2025/10/17 12:49:09.91173756,1760698149,90697506,gps,2,1,47.472064941666666,19.063384553333332,149.426,24.2064,0.0,0.0,0.0,24.2064,0.0,0.0,0.0,387.3024,1
2025/10/17 12:49:09.332035565,1760698149,331578999,gps,2,1,47.47206494833333,19.063384491666667,149.439,24.2064,0.0,0.0,0.0,24.2064,0.0,0.0,0.0,387.3024,1
2025/10/17 12:49:09.582734855,1760698149,582317795,gps,2,1,47.47206491833333,19.063384553333332,149.454,24.2064,0.0,0.0,0.0,24.2064,0.0,0.0,0.0,387.3024,1
2025/10/17 12:49:09.836626836,1760698149,836231328,gps,2,1,47.47206482833333,19.06338467,149.462,24.2064,0.0,0.0,0.0,24.2064,0.0,0.0,0.0,387.3024,1
2025/10/17 12:49:10.93174241,1760698150,92834273,gps,2,1,47.47206484666667,19.063384693333333,149.48000000000002,24.2064,0.0,0.0,0.0,24.2064,0.0,0.0,0.0,387.3024,1
2025/10/17 12:49:10.337002748,1760698150,336634733,gps,2,1,47.472065023333336,19.063384546666665,149.471,24.2064,0.0,0.0,0.0,24.2064,0.0,0.0,0.0,387.3024,1
2025/10/17 12:49:10.602946795,1760698150,602625224,gps,2,1,47.472065045,19.063384226666667,149.451,24.2064,0.0,0.0,0.0,24.2064,0.0,0.0,0.0,387.3024,1
2025/10/17 12:49:10.836052666,1760698150,835751775,gps,2,1,47.47206507833333,19.06338414,149.44299999999998,24.2064,0.0,0.0,0.0,24.2064,0.0,0.0,0.0,387.3024,1
2025/10/17 12:49:11.90638117,1760698151,90321757,gps,2,1,47.472065146666665,19.06338442,149.45,24.2064,0.0,0.0,0.0,24.2064,0.0,0.0,0.0,387.3024,1
2025/10/17 12:49:11.336162050,1760698151,335881994,gps,2,1,47.472065095,19.063384385,149.45,24.2064,0.0,0.0,0.0,24.2064,0.0,0.0,0.0,387.3024,1
2025/10/17 12:49:11.580906728,1760698151,580519917,gps,2,1,47.472065165,19.063384326666668,149.454,24.2064,0.0,0.0,0.0,24.2064,0.0,0.0,0.0,387.3024,1
2025/10/17 12:49:11.830632541,1760698151,830253105,gps,2,1,47.47206509666667,19.06338456,149.451,24.2064,0.0,0.0,0.0,24.2064,0.0,0.0,0.0,387.3024,1
2025/10/17 12:49:12.88842497,1760698152,88448040,gps,2,1,47.472065145,19.063384463333332,149.446,24.2064,0.0,0.0,0.0,24.2064,0.0,0.0,0.0,387.3024,1
2025/10/17 12:49:12.330757903,1760698152,330297762,gps,2,1,47.472065075,19.06338434,149.447,24.2064,0.0,0.0,0.0,24.2064,0.0,0.0,0.0,387.3024,1
2025/10/17 12:49:12.606085277,1760698152,605830137,gps,2,1,47.472064876666664,19.063384193333334,149.44299999999998,24.2064,0.0,0.0,0.0,24.2064,0.0,0.0,0.0,387.3024,1
2025/10/17 12:49:12.831901723,1760698152,831618578,gps,2,1,47.47206419333333,19.063384136666667,149.442,24.2064,0.0,0.0,0.0,24.2064,0.0,0.0,0.0,387.3024,1
2025/10/17 12:49:13.91981029,1760698153,91622197,gps,2,1,47.472063203333335,19.063383781666666,149.428,24.2064,0.0,0.0,0.0,24.2064,0.0,0.0,0.0,387.3024,1
2025/10/17 12:49:13.331197938,1760698153,330957114,gps,2,1,47.472062408333336,19.063383486666666,149.452,24.2064,0.0,0.0,0.0,24.2064,0.0,0.0,0.0,387.3024,1
2025/10/17 12:49:13.585029861,1760698153,584707983,gps,2,1,47.472061493333335,19.06338295,149.47199999999998,24.2064,0.0,0.0,0.0,24.2064,0.0,0.0,0.0,387.3024,1
2025/10/17 12:49:13.837530237,1760698153,837243409,gps,2,1,47.47206057,19.063382501666666,149.493,24.2064,0.0,0.0,0.0,24.2064,0.0,0.0,0.0,387.3024,1
2025/10/17 12:49:14.89992954,1760698154,89665209,gps,2,1,47.472059845,19.063381551666666,149.473,24.2064,0.0,0.0,0.0,24.2064,0.0,0.0,0.0,387.3024,1
2025/10/17 12:49:14.329711990,1760698154,329388393,gps,2,1,47.472058985,19.063380801666668,149.471,24.2064,0.0,0.0,0.0,24.2064,0.0,0.0,0.0,387.3024,1
2025/10/17 12:49:14.607178391,1760698154,606849313,gps,2,1,47.4720582,19.063379921666666,149.488,24.2064,0.0,0.0,0.0,24.2064,0.0,0.0,0.0,387.3024,1
2025/10/17 12:49:14.830018006,1760698154,829697369,gps,2,1,47.47205730666667,19.063378655,149.47899999999998,24.2064,0.0,0.0,0.0,24.2064,0.0,0.0,0.0,387.3024,1
2025/10/17 12:49:15.81982357,1760698155,81593587,gps,2,1,47.47205655166667,19.063377945,149.48399999999998,33.64,0.0,0.0,0.0,33.64,0.0,0.0,0.0,538.24,1
2025/10/17 12:49:15.332608296,1760698155,332293486,gps,2,1,47.47205558666667,19.063376808333334,149.478,33.64,0.0,0.0,0.0,33.64,0.0,0.0,0.0,538.24,1
2025/10/17 12:49:15.580208371,1760698155,579950947,gps,2,1,47.47205480833333,19.063375508333333,149.49,33.64,0.0,0.0,0.0,33.64,0.0,0.0,0.0,538.24,1
2025/10/17 12:49:15.830931174,1760698155,830539349,gps,2,1,47.47205413,19.063374268333334,149.51,33.64,0.0,0.0,0.0,33.64,0.0,0.0,0.0,538.24,1
2025/10/17 12:49:16.92261307,1760698156,91855462,gps,2,1,47.47205350833333,19.063372726666667,149.528,24.2064,0.0,0.0,0.0,24.2064,0.0,0.0,0.0,387.3024,1
2025/10/17 12:49:16.333945608,1760698156,333682545,gps,2,1,47.47205269333333,19.063371283333332,149.554,24.2064,0.0,0.0,0.0,24.2064,0.0,0.0,0.0,387.3024,1
2025/10/17 12:49:16.608639974,1760698156,608385372,gps,2,1,47.47205202333333,19.0633697,149.56900000000002,24.2064,0.0,0.0,0.0,24.2064,0.0,0.0,0.0,387.3024,1
2025/10/17 12:49:16.832953250,1760698156,832573089,gps,2,1,47.47205156,19.06336783,149.54899999999998,24.2064,0.0,0.0,0.0,24.2064,0.0,0.0,0.0,387.3024,1
2025/10/17 12:49:17.87744358,1760698157,87434191,gps,2,1,47.472051205,19.063366031666668,149.534,24.2064,0.0,0.0,0.0,24.2064,0.0,0.0,0.0,387.3024,1
2025/10/17 12:49:17.332454794,1760698157,332190935,gps,2,1,47.472050886666665,19.06336374,149.511,24.2064,0.0,0.0,0.0,24.2064,0.0,0.0,0.0,387.3024,1
2025/10/17 12:49:17.589293794,1760698157,589059521,gps,2,1,47.47205062333333,19.063361461666666,149.50799999999998,24.2064,0.0,0.0,0.0,24.2064,0.0,0.0,0.0,387.3024,1
2025/10/17 12:49:17.827889745,1760698157,827525885,gps,2,1,47.47205040833333,19.063359516666665,149.511,24.2064,0.0,0.0,0.0,24.2064,0.0,0.0,0.0,387.3024,1
2025/10/17 12:49:18.90902350,1760698158,90559003,gps,2,1,47.472050366666664,19.063357415,149.502,24.2064,0.0,0.0,0.0,24.2064,0.0,0.0,0.0,387.3024,1
2025/10/17 12:49:18.329314198,1760698158,328961101,gps,2,1,47.47205038333333,19.063355331666667,149.506,24.2064,0.0,0.0,0.0,24.2064,0.0,0.0,0.0,387.3024,1
2025/10/17 12:49:18.599976264,1760698158,599655506,gps,2,1,47.47205026333334,19.06335421,149.54399999999998,24.2064,0.0,0.0,0.0,24.2064,0.0,0.0,0.0,387.3024,1
2025/10/17 12:49:18.866167274,1760698158,865905680,gps,2,1,47.472050251666666,19.063353538333335,149.583,24.2064,0.0,0.0,0.0,24.2064,0.0,0.0,0.0,387.3024,1
2025/10/17 12:49:19.93128357,1760698159,92747925,gps,2,1,47.47205028166667,19.063353333333332,149.59199999999998,24.2064,0.0,0.0,0.0,24.2064,0.0,0.0,0.0,387.3024,1
2025/10/17 12:49:19.337172896,1760698159,336800349,gps,2,1,47.472050296666666,19.063353546666665,149.589,24.2064,0.0,0.0,0.0,24.2064,0.0,0.0,0.0,387.3024,1
2025/10/17 12:49:19.577964555,1760698159,577639870,gps,2,1,47.47205022666667,19.063353926666668,149.596,24.2064,0.0,0.0,0.0,24.2064,0.0,0.0,0.0,387.3024,1
2025/10/17 12:49:19.832129149,1760698159,831874180,gps,2,1,47.47205029333333,19.063353821666666,149.582,24.2064,0.0,0.0,0.0,24.2064,0.0,0.0,0.0,387.3024,1
2025/10/17 12:49:20.90384645,1760698160,90036746,gps,2,1,47.47205031833333,19.063353595,149.583,24.2064,0.0,0.0,0.0,24.2064,0.0,0.0,0.0,387.3024,1
2025/10/17 12:49:20.334329871,1760698160,334062224,gps,2,1,47.47205036166667,19.063353626666668,149.57,24.2064,0.0,0.0,0.0,24.2064,0.0,0.0,0.0,387.3024,1
2025/10/17 12:49:20.606289322,1760698160,605969002,gps,2,1,47.472050378333336,19.063353715,149.55700000000002,24.2064,0.0,0.0,0.0,24.2064,0.0,0.0,0.0,387.3024,1
2025/10/17 12:49:20.832603792,1760698160,832305880,gps,2,1,47.472050456666665,19.063353153333335,149.539,24.2064,0.0,0.0,0.0,24.2064,0.0,0.0,0.0,387.3024,1
2025/10/17 12:49:21.92283445,1760698161,91888291,gps,2,1,47.47205051833333,19.06335153,149.522,24.2064,0.0,0.0,0.0,24.2064,0.0,0.0,0.0,387.3024,1
2025/10/17 12:49:21.332560115,1760698161,332193001,gps,2,1,47.47205052,19.063349781666666,149.516,24.2064,0.0,0.0,0.0,24.2064,0.0,0.0,0.0,387.3024,1
2025/10/17 12:49:21.582294522,1760698161,581991621,gps,2,1,47.47205034666667,19.063348126666668,149.528,24.2064,0.0,0.0,0.0,24.2064,0.0,0.0,0.0,387.3024,1
2025/10/17 12:49:21.833087601,1760698161,832605325,gps,2,1,47.472050558333336,19.06334627,149.527,46.239999999999995,0.0,0.0,0.0,46.239999999999995,0.0,0.0,0.0,739.8399999999999,1
2025/10/17 12:49:22.87935906,1760698162,87584721,gps,2,1,47.47205081833334,19.063344146666665,149.502,46.239999999999995,0.0,0.0,0.0,46.239999999999995,0.0,0.0,0.0,739.8399999999999,1
2025/10/17 12:49:22.335291051,1760698162,334895258,gps,2,1,47.472050625,19.06334202,149.5,46.239999999999995,0.0,0.0,0.0,46.239999999999995,0.0,0.0,0.0,739.8399999999999,1
2025/10/17 12:49:22.607302042,1760698162,606824123,gps,2,1,47.472050278333334,19.063340545,149.54,46.239999999999995,0.0,0.0,0.0,46.239999999999995,0.0,0.0,0.0,739.8399999999999,1
2025/10/17 12:49:22.834434715,1760698162,834040631,gps,2,1,47.47205047,19.063338441666666,149.53199999999998,24.2064,0.0,0.0,0.0,24.2064,0.0,0.0,0.0,387.3024,1
2025/10/17 12:49:23.84011927,1760698163,83671084,gps,2,1,47.47205056,19.06333637,149.548,24.2064,0.0,0.0,0.0,24.2064,0.0,0.0,0.0,387.3024,1
2025/10/17 12:49:23.332328799,1760698163,332047059,gps,2,1,47.472050646666666,19.063333896666666,149.55700000000002,46.239999999999995,0.0,0.0,0.0,46.239999999999995,0.0,0.0,0.0,739.8399999999999,1
2025/10/17 12:49:23.576744651,1760698163,576473175,gps,2,1,47.47205050666667,19.063331603333335,149.579,46.239999999999995,0.0,0.0,0.0,46.239999999999995,0.0,0.0,0.0,739.8399999999999,1
2025/10/17 12:49:23.832775121,1760698163,832482654,gps,2,1,47.472050663333334,19.063329171666666,149.641,46.239999999999995,0.0,0.0,0.0,46.239999999999995,0.0,0.0,0.0,739.8399999999999,1
2025/10/17 12:49:24.81928149,1760698164,81569263,gps,2,1,47.47205008666667,19.063326861666667,149.695,46.239999999999995,0.0,0.0,0.0,46.239999999999995,0.0,0.0,0.0,739.8399999999999,1
2025/10/17 12:49:24.329628093,1760698164,329174959,gps,2,1,47.47205030166667,19.06332388,149.703,46.239999999999995,0.0,0.0,0.0,46.239999999999995,0.0,0.0,0.0,739.8399999999999,1
2025/10/17 12:49:24.590243577,1760698164,589948233,gps,1,1,47.47205010166667,19.0633225,149.74200000000002,0.028900000000000006,0.0,0.0,0.0,0.028900000000000006,0.0,0.0,0.0,0.4624000000000001,1
2025/10/17 12:49:24.828233996,1760698164,827934181,gps,1,1,47.47204994166667,19.063320805,149.773,0.028900000000000006,0.0,0.0,0.0,0.028900000000000006,0.0,0.0,0.0,0.4624000000000001,1
2025/10/17 12:49:25.85901721,1760698165,85578043,gps,1,1,47.472049803333334,19.063319931666665,149.792,0.028900000000000006,0.0,0.0,0.0,0.028900000000000006,0.0,0.0,0.0,0.4624000000000001,1
2025/10/17 12:49:25.327388043,1760698165,327063284,gps,1,1,47.47204970166667,19.06331968,149.81099999999998,0.028900000000000006,0.0,0.0,0.0,0.028900000000000006,0.0,0.0,0.0,0.4624000000000001,1
2025/10/17 12:49:25.579320226,1760698165,579034078,gps,1,1,47.472049696666666,19.063319973333332,149.828,0.028900000000000006,0.0,0.0,0.0,0.028900000000000006,0.0,0.0,0.0,0.4624000000000001,1
2025/10/17 12:49:25.828119630,1760698165,827788916,gps,2,1,47.47204968,19.063319491666668,149.84300000000002,46.239999999999995,0.0,0.0,0.0,46.239999999999995,0.0,0.0,0.0,739.8399999999999,1
2025/10/17 12:49:26.90562037,1760698166,90220334,gps,2,1,47.47204967333333,19.063319143333334,149.853,46.239999999999995,0.0,0.0,0.0,46.239999999999995,0.0,0.0,0.0,739.8399999999999,1
2025/10/17 12:49:26.333302074,1760698166,332906121,gps,2,1,47.47204936833333,19.063318231666667,149.875,46.239999999999995,0.0,0.0,0.0,46.239999999999995,0.0,0.0,0.0,739.8399999999999,1
2025/10/17 12:49:26.602990927,1760698166,602630205,gps,2,1,47.47204907,19.063316461666666,149.877,46.239999999999995,0.0,0.0,0.0,46.239999999999995,0.0,0.0,0.0,739.8399999999999,1
2025/10/17 12:49:26.825356898,1760698166,825012510,gps,2,1,47.4720487,19.063314198333334,149.902,46.239999999999995,0.0,0.0,0.0,46.239999999999995,0.0,0.0,0.0,739.8399999999999,1
2025/10/17 12:49:27.85732435,1760698167,85455153,gps,2,1,47.472047305,19.063309766666666,149.926,46.239999999999995,0.0,0.0,0.0,46.239999999999995,0.0,0.0,0.0,739.8399999999999,1
2025/10/17 12:49:27.322014261,1760698167,321715275,gps,1,1,47.472045773333335,19.063305741666667,149.93,0.035721,0.0,0.0,0.0,0.035721,0.0,0.0,0.0,0.571536,1
2025/10/17 12:49:27.573086829,1760698167,572629790,gps,1,1,47.472043565,19.06330459,149.933,0.028900000000000006,0.0,0.0,0.0,0.028900000000000006,0.0,0.0,0.0,0.4624000000000001,1
2025/10/17 12:49:27.823750930,1760698167,823411361,gps,2,1,47.472041505,19.063301173333333,149.876,46.239999999999995,0.0,0.0,0.0,46.239999999999995,0.0,0.0,0.0,739.8399999999999,1
2025/10/17 12:49:28.82036971,1760698168,81713736,gps,1,1,47.47203969666667,19.063300473333335,149.815,0.015129,0.0,0.0,0.0,0.015129,0.0,0.0,0.0,0.242064,1
2025/10/17 12:49:28.326425710,1760698168,326064074,gps,1,1,47.472037805,19.06330012,149.79,0.015129,0.0,0.0,0.0,0.015129,0.0,0.0,0.0,0.242064,1
2025/10/17 12:49:28.595640880,1760698168,595295901,gps,1,1,47.47203630833334,19.063299511666667,149.736,0.028900000000000006,0.0,0.0,0.0,0.028900000000000006,0.0,0.0,0.0,0.4624000000000001,1
2025/10/17 12:49:28.829461190,1760698168,828989519,gps,2,1,47.472035125,19.063299588333333,149.732,24.2064,0.0,0.0,0.0,24.2064,0.0,0.0,0.0,387.3024,1
2025/10/17 12:49:29.88293088,1760698169,87869347,gps,2,1,47.47203442166666,19.063299073333333,149.684,24.2064,0.0,0.0,0.0,24.2064,0.0,0.0,0.0,387.3024,1
2025/10/17 12:49:29.331100485,1760698169,330616421,gps,2,1,47.47203393833333,19.063298791666668,149.653,24.2064,0.0,0.0,0.0,24.2064,0.0,0.0,0.0,387.3024,1
2025/10/17 12:49:29.577093454,1760698169,576784315,gps,2,1,47.472033698333334,19.063298825,149.635,24.2064,0.0,0.0,0.0,24.2064,0.0,0.0,0.0,387.3024,1
2025/10/17 12:49:29.825247019,1760698169,824891139,gps,1,1,47.47203325833333,19.063298665,149.625,0.015129,0.0,0.0,0.0,0.015129,0.0,0.0,0.0,0.242064,1
2025/10/17 12:49:30.86958628,1760698170,86604486,gps,1,1,47.472032775,19.063298415,149.60399999999998,0.010000000000000002,0.0,0.0,0.0,0.010000000000000002,0.0,0.0,0.0,0.16000000000000003,1
2025/10/17 12:49:30.325929514,1760698170,325507922,gps,1,1,47.47203239,19.063298056666667,149.583,0.028900000000000006,0.0,0.0,0.0,0.028900000000000006,0.0,0.0,0.0,0.4624000000000001,1
2025/10/17 12:49:30.600218071,1760698170,599805077,gps,1,1,47.47203185833333,19.0632979,149.588,0.028900000000000006,0.0,0.0,0.0,0.028900000000000006,0.0,0.0,0.0,0.4624000000000001,1
2025/10/17 12:49:30.829402702,1760698170,829130666,gps,2,1,47.472031225,19.06329751,149.564,46.239999999999995,0.0,0.0,0.0,46.239999999999995,0.0,0.0,0.0,739.8399999999999,1
2025/10/17 12:49:31.87324004,1760698171,86977079,gps,2,1,47.472030475,19.06329755,149.58499999999998,46.239999999999995,0.0,0.0,0.0,46.239999999999995,0.0,0.0,0.0,739.8399999999999,1
2025/10/17 12:49:31.326797539,1760698171,326455645,gps,2,1,47.47202985166667,19.063297633333335,149.587,46.239999999999995,0.0,0.0,0.0,46.239999999999995,0.0,0.0,0.0,739.8399999999999,1
2025/10/17 12:49:31.579913310,1760698171,579602996,gps,2,1,47.47202906333333,19.06329743,149.577,46.239999999999995,0.0,0.0,0.0,46.239999999999995,0.0,0.0,0.0,739.8399999999999,1
2025/10/17 12:49:31.832695919,1760698171,832349253,gps,2,1,47.47202837,19.063297225,149.56799999999998,46.239999999999995,0.0,0.0,0.0,46.239999999999995,0.0,0.0,0.0,739.8399999999999,1
2025/10/17 12:49:32.90861882,1760698172,90417669,gps,2,1,47.47202771,19.063296993333335,149.562,46.239999999999995,0.0,0.0,0.0,46.239999999999995,0.0,0.0,0.0,739.8399999999999,1
2025/10/17 12:49:32.331938014,1760698172,331617988,gps,2,1,47.47202717166667,19.06329678333333,149.539,46.239999999999995,0.0,0.0,0.0,46.239999999999995,0.0,0.0,0.0,739.8399999999999,1
2025/10/17 12:49:32.605231297,1760698172,604972735,gps,1,1,47.47202656333333,19.063296836666666,149.54399999999998,0.028900000000000006,0.0,0.0,0.0,0.028900000000000006,0.0,0.0,0.0,0.4624000000000001,1
2025/10/17 12:49:32.828588430,1760698172,828222856,gps,2,1,47.472025765,19.063296501666667,149.531,46.239999999999995,0.0,0.0,0.0,46.239999999999995,0.0,0.0,0.0,739.8399999999999,1
2025/10/17 12:49:33.79323891,1760698173,78934338,gps,2,1,47.47202513,19.063296133333335,149.502,46.239999999999995,0.0,0.0,0.0,46.239999999999995,0.0,0.0,0.0,739.8399999999999,1
2025/10/17 12:49:33.326193333,1760698173,325858788,gps,1,1,47.47202452166667,19.063296168333334,149.49599999999998,0.028900000000000006,0.0,0.0,0.0,0.028900000000000006,0.0,0.0,0.0,0.4624000000000001,1
2025/10/17 12:49:33.577381249,1760698173,576967734,gps,1,1,47.47202395666667,19.06329596,149.48000000000002,0.028900000000000006,0.0,0.0,0.0,0.028900000000000006,0.0,0.0,0.0,0.4624000000000001,1
2025/10/17 12:49:33.829427684,1760698173,829129057,gps,2,1,47.47202317333333,19.063296048333335,149.49099999999999,46.239999999999995,0.0,0.0,0.0,46.239999999999995,0.0,0.0,0.0,739.8399999999999,1
2025/10/17 12:49:34.84997771,1760698174,84695217,gps,2,1,47.47202243,19.06329626,149.483,46.239999999999995,0.0,0.0,0.0,46.239999999999995,0.0,0.0,0.0,739.8399999999999,1
2025/10/17 12:49:34.330677809,1760698174,330330996,gps,2,1,47.472021665,19.063296528333332,149.47199999999998,46.239999999999995,0.0,0.0,0.0,46.239999999999995,0.0,0.0,0.0,739.8399999999999,1
2025/10/17 12:49:34.608902548,1760698174,608579819,gps,2,1,47.47202097833333,19.063296386666668,149.442,46.239999999999995,0.0,0.0,0.0,46.239999999999995,0.0,0.0,0.0,739.8399999999999,1
2025/10/17 12:49:34.832279275,1760698174,831922115,gps,2,1,47.47202019833333,19.063296631666667,149.469,46.239999999999995,0.0,0.0,0.0,46.239999999999995,0.0,0.0,0.0,739.8399999999999,1
2025/10/17 12:49:35.90972915,1760698175,90606077,gps,1,1,47.472019741666664,19.06329653,149.442,0.015129,0.0,0.0,0.0,0.015129,0.0,0.0,0.0,0.242064,1
2025/10/17 12:49:35.334363116,1760698175,334073773,gps,1,1,47.47201927166667,19.063295866666667,149.386,0.015129,0.0,0.0,0.0,0.015129,0.0,0.0,0.0,0.242064,1
2025/10/17 12:49:35.583842862,1760698175,583491520,gps,1,1,47.47201895333333,19.063295748333335,149.357,0.015129,0.0,0.0,0.0,0.015129,0.0,0.0,0.0,0.242064,1
2025/10/17 12:49:35.828728188,1760698175,828397822,gps,2,1,47.472018371666664,19.06329599,149.36599999999999,24.2064,0.0,0.0,0.0,24.2064,0.0,0.0,0.0,387.3024,1
2025/10/17 12:49:36.91884985,1760698176,91550223,gps,2,1,47.472018025,19.063296128333334,149.372,24.2064,0.0,0.0,0.0,24.2064,0.0,0.0,0.0,387.3024,1
2025/10/17 12:49:36.331389107,1760698176,331115785,gps,2,1,47.47201780333333,19.063296291666667,149.374,46.239999999999995,0.0,0.0,0.0,46.239999999999995,0.0,0.0,0.0,739.8399999999999,1
2025/10/17 12:49:36.605008483,1760698176,604659493,gps,2,1,47.472017711666666,19.0632964,149.375,46.239999999999995,0.0,0.0,0.0,46.239999999999995,0.0,0.0,0.0,739.8399999999999,1
2025/10/17 12:49:36.832121437,1760698176,831853579,gps,2,1,47.472017656666665,19.063296505,149.375,46.239999999999995,0.0,0.0,0.0,46.239999999999995,0.0,0.0,0.0,739.8399999999999,1
2025/10/17 12:49:37.89146157,1760698177,88748646,gps,2,1,47.47201762833333,19.06329658,149.377,46.239999999999995,0.0,0.0,0.0,46.239999999999995,0.0,0.0,0.0,739.8399999999999,1
2025/10/17 12:49:37.330866750,1760698177,330496900,gps,2,1,47.472017585,19.063296753333333,149.38400000000001,46.239999999999995,0.0,0.0,0.0,46.239999999999995,0.0,0.0,0.0,739.8399999999999,1
2025/10/17 12:49:37.577798189,1760698177,577480622,gps,2,1,47.472017091666665,19.063296943333334,149.389,46.239999999999995,0.0,0.0,0.0,46.239999999999995,0.0,0.0,0.0,739.8399999999999,1
2025/10/17 12:49:37.828913050,1760698177,828659730,gps,2,1,47.47201654,19.063296991666668,149.38400000000001,46.239999999999995,0.0,0.0,0.0,46.239999999999995,0.0,0.0,0.0,739.8399999999999,1
2025/10/17 12:49:38.85353863,1760698178,85062188,gps,2,1,47.47201573833333,19.063297321666667,149.405,46.239999999999995,0.0,0.0,0.0,46.239999999999995,0.0,0.0,0.0,739.8399999999999,1
2025/10/17 12:49:38.328817177,1760698178,328480981,gps,2,1,47.47201524333333,19.063297586666668,149.39,46.239999999999995,0.0,0.0,0.0,46.239999999999995,0.0,0.0,0.0,739.8399999999999,1
2025/10/17 12:49:38.602077440,1760698178,601724607,gps,2,1,47.472014935,19.063297801666668,149.39,46.239999999999995,0.0,0.0,0.0,46.239999999999995,0.0,0.0,0.0,739.8399999999999,1
2025/10/17 12:49:38.828206161,1760698178,827794505,gps,2,1,47.47201472333333,19.063297903333332,149.399,46.239999999999995,0.0,0.0,0.0,46.239999999999995,0.0,0.0,0.0,739.8399999999999,1
2025/10/17 12:49:39.90364861,1760698179,89991562,gps,2,1,47.472014316666666,19.063297858333332,149.399,46.239999999999995,0.0,0.0,0.0,46.239999999999995,0.0,0.0,0.0,739.8399999999999,1
2025/10/17 12:49:39.329319944,1760698179,328903987,gps,2,1,47.472013625,19.063298143333334,149.405,46.239999999999995,0.0,0.0,0.0,46.239999999999995,0.0,0.0,0.0,739.8399999999999,1
2025/10/17 12:49:39.579725969,1760698179,579442339,gps,2,1,47.472012725,19.06329801,149.392,46.239999999999995,0.0,0.0,0.0,46.239999999999995,0.0,0.0,0.0,739.8399999999999,1
2025/10/17 12:49:39.827334964,1760698179,827084476,gps,2,1,47.472011395,19.063298005,149.38,46.239999999999995,0.0,0.0,0.0,46.239999999999995,0.0,0.0,0.0,739.8399999999999,1
2025/10/17 12:49:40.81805662,1760698180,81482851,gps,1,1,47.472009926666665,19.063297941666665,149.356,0.028900000000000006,0.0,0.0,0.0,0.028900000000000006,0.0,0.0,0.0,0.4624000000000001,1
2025/10/17 12:49:40.324682005,1760698180,324408286,gps,1,1,47.472008206666665,19.06329786,149.31900000000002,0.028900000000000006,0.0,0.0,0.0,0.028900000000000006,0.0,0.0,0.0,0.4624000000000001,1
2025/10/17 12:49:40.602900555,1760698180,602644005,gps,1,1,47.472006441666665,19.063297835,149.297,0.028900000000000006,0.0,0.0,0.0,0.028900000000000006,0.0,0.0,0.0,0.4624000000000001,1
2025/10/17 12:49:40.830928622,1760698180,830607610,gps,2,1,47.472004186666666,19.063298845,149.391,46.239999999999995,0.0,0.0,0.0,46.239999999999995,0.0,0.0,0.0,739.8399999999999,1
2025/10/17 12:49:41.84637144,1760698181,84258712,gps,2,1,47.47200264,19.063299171666667,149.427,46.239999999999995,0.0,0.0,0.0,46.239999999999995,0.0,0.0,0.0,739.8399999999999,1
2025/10/17 12:49:41.326942395,1760698181,326467496,gps,2,1,47.472001525,19.06329963,149.427,46.239999999999995,0.0,0.0,0.0,46.239999999999995,0.0,0.0,0.0,739.8399999999999,1
2025/10/17 12:49:41.578460225,1760698181,578139463,gps,2,1,47.47200065166667,19.0632999,149.434,46.239999999999995,0.0,0.0,0.0,46.239999999999995,0.0,0.0,0.0,739.8399999999999,1
2025/10/17 12:49:41.825244299,1760698181,824835085,gps,2,1,47.471999978333336,19.063300533333333,149.43599999999998,24.2064,0.0,0.0,0.0,24.2064,0.0,0.0,0.0,387.3024,1
2025/10/17 12:49:42.78504183,1760698182,78111378,gps,2,1,47.47199964166666,19.063300833333333,149.439,16.0,0.0,0.0,0.0,16.0,0.0,0.0,0.0,256.0,1
2025/10/17 12:49:42.327862179,1760698182,327585726,gps,2,1,47.471999435,19.06330106,149.452,24.2064,0.0,0.0,0.0,24.2064,0.0,0.0,0.0,387.3024,1
2025/10/17 12:49:42.605604814,1760698182,605193291,gps,2,1,47.47199881,19.06330145,149.463,26.2144,0.0,0.0,0.0,26.2144,0.0,0.0,0.0,419.4304,1
2025/10/17 12:49:42.828307398,1760698182,828066829,gps,2,1,47.471998201666665,19.063301805,149.437,26.2144,0.0,0.0,0.0,26.2144,0.0,0.0,0.0,419.4304,1
2025/10/17 12:49:43.86964447,1760698183,86582901,gps,2,1,47.47199698833333,19.063302161666666,149.42000000000002,26.2144,0.0,0.0,0.0,26.2144,0.0,0.0,0.0,419.4304,1
2025/10/17 12:49:43.328189052,1760698183,327876357,gps,2,1,47.47199602166667,19.063302136666668,149.38,14.44,0.0,0.0,0.0,14.44,0.0,0.0,0.0,231.04,1
2025/10/17 12:49:43.581506344,1760698183,581151964,gps,2,1,47.471995095,19.06330219333333,149.336,14.44,0.0,0.0,0.0,14.44,0.0,0.0,0.0,231.04,1
2025/10/17 12:49:43.832264289,1760698183,831974344,gps,2,1,47.471993743333336,19.063302305,149.317,14.44,0.0,0.0,0.0,14.44,0.0,0.0,0.0,231.04,1
2025/10/17 12:49:44.88077755,1760698184,87694910,gps,1,1,47.47199233,19.06330293,149.268,0.015129,0.0,0.0,0.0,0.015129,0.0,0.0,0.0,0.242064,1
2025/10/17 12:49:44.336883245,1760698184,336532299,gps,1,1,47.471990571666666,19.06330411,149.24099999999999,0.015129,0.0,0.0,0.0,0.015129,0.0,0.0,0.0,0.242064,1
2025/10/17 12:49:44.611567830,1760698184,611168287,gps,1,1,47.47198899833333,19.063304933333335,149.155,0.028900000000000006,0.0,0.0,0.0,0.028900000000000006,0.0,0.0,0.0,0.4624000000000001,1
2025/10/17 12:49:44.828219286,1760698184,827945668,gps,1,1,47.47198796833333,19.063306046666668,149.099,0.015129,0.0,0.0,0.0,0.015129,0.0,0.0,0.0,0.242064,1
2025/10/17 12:49:45.86130582,1760698185,85809683,gps,1,1,47.471986863333335,19.063306463333333,149.04500000000002,0.015129,0.0,0.0,0.0,0.015129,0.0,0.0,0.0,0.242064,1
2025/10/17 12:49:45.330366746,1760698185,329970421,gps,1,1,47.47198635833333,19.063307201666667,148.977,0.044521,0.0,0.0,0.0,0.044521,0.0,0.0,0.0,0.712336,1
2025/10/17 12:49:45.580002105,1760698185,579668801,gps,1,1,47.47198613333333,19.063307888333334,148.888,0.044521,0.0,0.0,0.0,0.044521,0.0,0.0,0.0,0.712336,1
2025/10/17 12:49:45.854784669,1760698185,854376494,gps,2,1,47.47198482,19.063310343333335,148.93599999999998,26.2144,0.0,0.0,0.0,26.2144,0.0,0.0,0.0,419.4304,1
2025/10/17 12:49:46.85811400,1760698186,85413484,gps,1,1,47.47198444833333,19.063311601666665,148.856,0.016384,0.0,0.0,0.0,0.016384,0.0,0.0,0.0,0.262144,1
2025/10/17 12:49:46.326956741,1760698186,326622850,gps,1,1,47.47198405,19.06331375,148.79,0.016384,0.0,0.0,0.0,0.016384,0.0,0.0,0.0,0.262144,1
2025/10/17 12:49:46.596288822,1760698186,595943148,gps,1,1,47.47198425333333,19.063315148333334,148.772,0.016384,0.0,0.0,0.0,0.016384,0.0,0.0,0.0,0.262144,1
2025/10/17 12:49:46.829711614,1760698186,829341940,gps,2,1,47.47198375166667,19.063317866666665,148.73399999999998,26.2144,0.0,0.0,0.0,26.2144,0.0,0.0,0.0,419.4304,1
2025/10/17 12:49:47.84597218,1760698187,84228076,gps,1,1,47.471983871666666,19.063318991666666,148.723,0.016384,0.0,0.0,0.0,0.016384,0.0,0.0,0.0,0.262144,1
2025/10/17 12:49:47.331226220,1760698187,330778161,gps,1,1,47.47198409333333,19.063319586666665,148.692,0.016384,0.0,0.0,0.0,0.016384,0.0,0.0,0.0,0.262144,1
2025/10/17 12:49:47.580701811,1760698187,580291325,gps,1,1,47.47198388,19.063320765,148.73399999999998,0.016384,0.0,0.0,0.0,0.016384,0.0,0.0,0.0,0.262144,1
2025/10/17 12:49:47.827863461,1760698187,827472856,gps,2,1,47.471983501666664,19.063322435,148.712,26.2144,0.0,0.0,0.0,26.2144,0.0,0.0,0.0,419.4304,1
2025/10/17 12:49:48.88387173,1760698188,87962028,gps,2,1,47.471983305,19.063323506666666,148.70499999999998,26.2144,0.0,0.0,0.0,26.2144,0.0,0.0,0.0,419.4304,1
2025/10/17 12:49:48.328354771,1760698188,328085150,gps,2,1,47.4719833,19.063323808333333,148.7,26.2144,0.0,0.0,0.0,26.2144,0.0,0.0,0.0,419.4304,1
2025/10/17 12:49:48.606394037,1760698188,606109526,gps,2,1,47.47198326833333,19.06332392,148.69799999999998,26.2144,0.0,0.0,0.0,26.2144,0.0,0.0,0.0,419.4304,1
2025/10/17 12:49:48.837081676,1760698188,836746568,gps,2,1,47.471983161666664,19.063324088333335,148.697,26.2144,0.0,0.0,0.0,26.2144,0.0,0.0,0.0,419.4304,1
2025/10/17 12:49:49.92575139,1760698189,92193784,gps,2,1,47.471983103333336,19.063324268333332,148.689,16.0,0.0,0.0,0.0,16.0,0.0,0.0,0.0,256.0,1
2025/10/17 12:49:49.331065376,1760698189,330764069,gps,2,1,47.47198302166667,19.063324443333332,148.69,14.44,0.0,0.0,0.0,14.44,0.0,0.0,0.0,231.04,1
2025/10/17 12:49:49.584086134,1760698189,583643247,gps,2,1,47.47198298166666,19.063324558333335,148.69,14.44,0.0,0.0,0.0,14.44,0.0,0.0,0.0,231.04,1
2025/10/17 12:49:49.833598189,1760698189,833299735,gps,2,1,47.47198293666667,19.063324581666667,148.689,24.2064,0.0,0.0,0.0,24.2064,0.0,0.0,0.0,387.3024,1
2025/10/17 12:49:50.90557755,1760698190,90160505,gps,2,1,47.47198289333333,19.06332469,148.687,24.2064,0.0,0.0,0.0,24.2064,0.0,0.0,0.0,387.3024,1
2025/10/17 12:49:50.333479550,1760698190,333078934,gps,2,1,47.47198286,19.063324685,148.68599999999998,24.2064,0.0,0.0,0.0,24.2064,0.0,0.0,0.0,387.3024,1
2025/10/17 12:49:50.606957780,1760698190,606625436,gps,2,1,47.47198276,19.06332456166667,148.69299999999998,24.2064,0.0,0.0,0.0,24.2064,0.0,0.0,0.0,387.3024,1
2025/10/17 12:49:50.832156387,1760698190,831819894,gps,2,1,47.471982561666664,19.063324391666665,148.715,24.2064,0.0,0.0,0.0,24.2064,0.0,0.0,0.0,387.3024,1
2025/10/17 12:49:51.82689232,1760698191,82333096,gps,2,1,47.47198253333333,19.063324158333334,148.728,24.2064,0.0,0.0,0.0,24.2064,0.0,0.0,0.0,387.3024,1
2025/10/17 12:49:51.331820545,1760698191,331527006,gps,2,1,47.471982481666664,19.063324193333333,148.743,22.6576,0.0,0.0,0.0,22.6576,0.0,0.0,0.0,362.5216,1
2025/10/17 12:49:51.583401076,1760698191,582989021,gps,2,1,47.471982436666664,19.063324111666667,148.75400000000002,22.6576,0.0,0.0,0.0,22.6576,0.0,0.0,0.0,362.5216,1
2025/10/17 12:49:51.835929652,1760698191,835602005,gps,2,1,47.47198244166667,19.06332375,148.755,22.6576,0.0,0.0,0.0,22.6576,0.0,0.0,0.0,362.5216,1
2025/10/17 12:49:52.90179993,1760698192,90053245,gps,2,1,47.471982411666666,19.063323758333333,148.762,22.6576,0.0,0.0,0.0,22.6576,0.0,0.0,0.0,362.5216,1
2025/10/17 12:49:52.329787683,1760698192,329416661,gps,2,1,47.471982383333334,19.063323753333332,148.767,22.6576,0.0,0.0,0.0,22.6576,0.0,0.0,0.0,362.5216,1
2025/10/17 12:49:52.605387675,1760698192,605077719,gps,2,1,47.471982375,19.063323576666665,148.766,22.6576,0.0,0.0,0.0,22.6576,0.0,0.0,0.0,362.5216,1
2025/10/17 12:49:52.828766973,1760698192,828398373,gps,2,1,47.471982335,19.063323203333333,148.769,22.6576,0.0,0.0,0.0,22.6576,0.0,0.0,0.0,362.5216,1
2025/10/17 12:49:53.89607109,1760698193,89200154,gps,2,1,47.471982241666666,19.063322861666666,148.78699999999998,22.6576,0.0,0.0,0.0,22.6576,0.0,0.0,0.0,362.5216,1
2025/10/17 12:49:53.332185987,1760698193,331827374,gps,2,1,47.471982096666665,19.063321986666665,148.813,24.2064,0.0,0.0,0.0,24.2064,0.0,0.0,0.0,387.3024,1
2025/10/17 12:49:53.584814525,1760698193,584281940,gps,2,1,47.471982225,19.06332078333333,148.808,24.2064,0.0,0.0,0.0,24.2064,0.0,0.0,0.0,387.3024,1
2025/10/17 12:49:53.826767485,1760698193,826373622,gps,2,1,47.471981965,19.063319435,148.836,24.2064,0.0,0.0,0.0,24.2064,0.0,0.0,0.0,387.3024,1
2025/10/17 12:49:54.89774091,1760698194,89420593,gps,2,1,47.471981846666665,19.063317683333334,148.861,24.2064,0.0,0.0,0.0,24.2064,0.0,0.0,0.0,387.3024,1
2025/10/17 12:49:54.331450954,1760698194,331194819,gps,2,1,47.47198167333333,19.063315861666666,148.851,24.2064,0.0,0.0,0.0,24.2064,0.0,0.0,0.0,387.3024,1
2025/10/17 12:49:54.604371959,1760698194,604007264,gps,2,1,47.471981613333334,19.06331464166667,148.851,24.2064,0.0,0.0,0.0,24.2064,0.0,0.0,0.0,387.3024,1
2025/10/17 12:49:54.835024803,1760698194,834780461,gps,2,1,47.47198116166667,19.063314061666667,148.889,24.2064,0.0,0.0,0.0,24.2064,0.0,0.0,0.0,387.3024,1
2025/10/17 12:49:55.88972901,1760698195,88557599,gps,2,1,47.47198093666667,19.063313878333332,148.911,24.2064,0.0,0.0,0.0,24.2064,0.0,0.0,0.0,387.3024,1
2025/10/17 12:49:55.330829762,1760698195,330339443,gps,2,1,47.471980845,19.063313713333333,148.916,24.2064,0.0,0.0,0.0,24.2064,0.0,0.0,0.0,387.3024,1
2025/10/17 12:49:55.575088724,1760698195,574823557,gps,2,1,47.471980785,19.063313601666668,148.921,24.2064,0.0,0.0,0.0,24.2064,0.0,0.0,0.0,387.3024,1
2025/10/17 12:49:55.828498207,1760698195,828115386,gps,2,1,47.471980458333334,19.063313616666665,148.985,24.2064,0.0,0.0,0.0,24.2064,0.0,0.0,0.0,387.3024,1
2025/10/17 12:49:56.86485724,1760698196,86009204,gps,2,1,47.47198022833334,19.06331355,149.043,24.2064,0.0,0.0,0.0,24.2064,0.0,0.0,0.0,387.3024,1
2025/10/17 12:49:56.333414351,1760698196,332964048,gps,2,1,47.47198005,19.063313501666666,149.082,22.6576,0.0,0.0,0.0,22.6576,0.0,0.0,0.0,362.5216,1
2025/10/17 12:49:56.611040378,1760698196,610673479,gps,2,1,47.47197988833334,19.06331347,149.111,22.6576,0.0,0.0,0.0,22.6576,0.0,0.0,0.0,362.5216,1
2025/10/17 12:49:56.832500381,1760698196,832071916,gps,2,1,47.47197967,19.063313411666666,149.167,22.6576,0.0,0.0,0.0,22.6576,0.0,0.0,0.0,362.5216,1
2025/10/17 12:49:57.92286156,1760698197,91861099,gps,2,1,47.471979515,19.063313281666666,149.207,24.2064,0.0,0.0,0.0,24.2064,0.0,0.0,0.0,387.3024,1
2025/10/17 12:49:57.332541835,1760698197,332151549,gps,2,1,47.471979365,19.06331323,149.243,24.2064,0.0,0.0,0.0,24.2064,0.0,0.0,0.0,387.3024,1
2025/10/17 12:49:57.585770304,1760698197,585393205,gps,2,1,47.47197922666667,19.06331322,149.269,24.2064,0.0,0.0,0.0,24.2064,0.0,0.0,0.0,387.3024,1
2025/10/17 12:49:57.835752068,1760698197,835474436,gps,2,1,47.471979053333335,19.063313041666667,149.309,24.2064,0.0,0.0,0.0,24.2064,0.0,0.0,0.0,387.3024,1
2025/10/17 12:49:58.91556058,1760698198,91193934,gps,2,1,47.471978883333335,19.063313016666665,149.348,24.2064,0.0,0.0,0.0,24.2064,0.0,0.0,0.0,387.3024,1
2025/10/17 12:49:58.332287247,1760698198,331959464,gps,2,1,47.471978981666666,19.063313245,149.385,24.2064,0.0,0.0,0.0,24.2064,0.0,0.0,0.0,387.3024,1
2025/10/17 12:49:58.611208896,1760698198,610748749,gps,2,1,47.471979438333335,19.063314348333332,149.37900000000002,24.2064,0.0,0.0,0.0,24.2064,0.0,0.0,0.0,387.3024,1
2025/10/17 12:49:58.834511311,1760698198,834197308,gps,2,1,47.471980235,19.063316305,149.352,24.2064,0.0,0.0,0.0,24.2064,0.0,0.0,0.0,387.3024,1
2025/10/17 12:49:59.90822201,1760698199,90435244,gps,2,1,47.471981416666665,19.063318821666666,149.329,24.2064,0.0,0.0,0.0,24.2064,0.0,0.0,0.0,387.3024,1
2025/10/17 12:49:59.331743487,1760698199,331416414,gps,1,1,47.471982305,19.06332085,149.304,0.015129,0.0,0.0,0.0,0.015129,0.0,0.0,0.0,0.242064,1
2025/10/17 12:49:59.588008326,1760698199,587662426,gps,1,1,47.47198316,19.063321981666668,149.272,0.014160999999999998,0.0,0.0,0.0,0.014160999999999998,0.0,0.0,0.0,0.22657599999999997,1
2025/10/17 12:49:59.837760073,1760698199,837476296,gps,2,1,47.471984598333336,19.063324385,149.203,22.6576,0.0,0.0,0.0,22.6576,0.0,0.0,0.0,362.5216,1
2025/10/17 12:50:00.83528778,1760698200,83049345,gps,1,1,47.471986425,19.063327576666666,149.10500000000002,0.014160999999999998,0.0,0.0,0.0,0.014160999999999998,0.0,0.0,0.0,0.22657599999999997,1
2025/10/17 12:50:00.331071442,1760698200,330789120,gps,1,1,47.47198862166667,19.063331121666668,148.973,0.014160999999999998,0.0,0.0,0.0,0.014160999999999998,0.0,0.0,0.0,0.22657599999999997,1
2025/10/17 12:50:00.604789494,1760698200,604383586,gps,1,1,47.47199042,19.063335313333333,148.934,0.014160999999999998,0.0,0.0,0.0,0.014160999999999998,0.0,0.0,0.0,0.22657599999999997,1
2025/10/17 12:50:00.831813016,1760698200,831479410,gps,2,1,47.47199206333333,19.063339806666665,148.86,22.6576,0.0,0.0,0.0,22.6576,0.0,0.0,0.0,362.5216,1
2025/10/17 12:50:01.90553138,1760698201,90075891,gps,2,1,47.471993865,19.06334393,148.844,22.6576,0.0,0.0,0.0,22.6576,0.0,0.0,0.0,362.5216,1
2025/10/17 12:50:01.332033438,1760698201,331671771,gps,2,1,47.471995641666666,19.063347523333334,148.85500000000002,22.6576,0.0,0.0,0.0,22.6576,0.0,0.0,0.0,362.5216,1
2025/10/17 12:50:01.582694534,1760698201,582432027,gps,2,1,47.471997378333334,19.06335019,148.85500000000002,22.6576,0.0,0.0,0.0,22.6576,0.0,0.0,0.0,362.5216,1
2025/10/17 12:50:01.832472834,1760698201,832067139,gps,2,1,47.47199939666667,19.063352203333334,148.826,22.6576,0.0,0.0,0.0,22.6576,0.0,0.0,0.0,362.5216,1
2025/10/17 12:50:02.97577774,1760698202,97262951,gps,2,1,47.47200111666667,19.063353673333335,148.856,22.6576,0.0,0.0,0.0,22.6576,0.0,0.0,0.0,362.5216,1
2025/10/17 12:50:02.340008899,1760698202,339672759,gps,2,1,47.47200303666666,19.06335505,148.845,22.6576,0.0,0.0,0.0,22.6576,0.0,0.0,0.0,362.5216,1
2025/10/17 12:50:02.610439857,1760698202,610081793,gps,2,1,47.47200564,19.063356866666666,148.851,22.6576,0.0,0.0,0.0,22.6576,0.0,0.0,0.0,362.5216,1
2025/10/17 12:50:02.828354197,1760698202,828108162,gps,2,1,47.472007995,19.063357421666666,148.86700000000002,22.6576,0.0,0.0,0.0,22.6576,0.0,0.0,0.0,362.5216,1
2025/10/17 12:50:03.91390164,1760698203,90935650,gps,2,1,47.47201002166667,19.063357995,148.862,22.6576,0.0,0.0,0.0,22.6576,0.0,0.0,0.0,362.5216,1
2025/10/17 12:50:03.334349056,1760698203,333973708,gps,2,1,47.47201183166667,19.063358031666667,148.865,22.6576,0.0,0.0,0.0,22.6576,0.0,0.0,0.0,362.5216,1
2025/10/17 12:50:03.583265768,1760698203,582814900,gps,2,1,47.47201319166667,19.06335818166667,148.882,22.6576,0.0,0.0,0.0,22.6576,0.0,0.0,0.0,362.5216,1
2025/10/17 12:50:03.835919635,1760698203,835628507,gps,2,1,47.472014181666665,19.06335816,148.891,22.6576,0.0,0.0,0.0,22.6576,0.0,0.0,0.0,362.5216,1
2025/10/17 12:50:04.90239870,1760698204,89986254,gps,2,1,47.472015543333335,19.063358158333333,148.90800000000002,22.6576,0.0,0.0,0.0,22.6576,0.0,0.0,0.0,362.5216,1
2025/10/17 12:50:04.333564859,1760698204,333134194,gps,2,1,47.472017263333335,19.063357873333334,148.921,22.6576,0.0,0.0,0.0,22.6576,0.0,0.0,0.0,362.5216,1
2025/10/17 12:50:04.602493064,1760698204,602229770,gps,2,1,47.47201905166666,19.06335713,148.926,22.6576,0.0,0.0,0.0,22.6576,0.0,0.0,0.0,362.5216,1
2025/10/17 12:50:04.832823201,1760698204,832418430,gps,2,1,47.47202076333333,19.06335648,148.909,22.6576,0.0,0.0,0.0,22.6576,0.0,0.0,0.0,362.5216,1
2025/10/17 12:50:05.90804580,1760698205,90389570,gps,2,1,47.472022055,19.063355938333334,148.889,22.6576,0.0,0.0,0.0,22.6576,0.0,0.0,0.0,362.5216,1
2025/10/17 12:50:05.335136396,1760698205,334774039,gps,2,1,47.472023065,19.063355641666668,148.868,22.6576,0.0,0.0,0.0,22.6576,0.0,0.0,0.0,362.5216,1
2025/10/17 12:50:05.585976285,1760698205,585633444,gps,2,1,47.47202378,19.06335526,148.852,22.6576,0.0,0.0,0.0,22.6576,0.0,0.0,0.0,362.5216,1
2025/10/17 12:50:05.836323268,1760698205,836038828,gps,2,1,47.47202428333333,19.063355101666666,148.84699999999998,22.6576,0.0,0.0,0.0,22.6576,0.0,0.0,0.0,362.5216,1
2025/10/17 12:50:06.94394752,1760698206,93975519,gps,2,1,47.472024563333335,19.063355051666665,148.848,22.6576,0.0,0.0,0.0,22.6576,0.0,0.0,0.0,362.5216,1
2025/10/17 12:50:06.333915144,1760698206,333601065,gps,2,1,47.47202469333333,19.063355071666667,148.838,22.6576,0.0,0.0,0.0,22.6576,0.0,0.0,0.0,362.5216,1
2025/10/17 12:50:06.610242463,1760698206,609845320,gps,2,1,47.472024788333336,19.063355028333334,148.83499999999998,22.6576,0.0,0.0,0.0,22.6576,0.0,0.0,0.0,362.5216,1
2025/10/17 12:50:06.836173685,1760698206,835790879,gps,2,1,47.472025485,19.063354836666665,148.827,22.6576,0.0,0.0,0.0,22.6576,0.0,0.0,0.0,362.5216,1
2025/10/17 12:50:07.93846951,1760698207,93438555,gps,2,1,47.472026825,19.063354428333334,148.822,22.6576,0.0,0.0,0.0,22.6576,0.0,0.0,0.0,362.5216,1
2025/10/17 12:50:07.327582405,1760698207,327343995,gps,2,1,47.47202918666667,19.06335350166667,148.82,24.2064,0.0,0.0,0.0,24.2064,0.0,0.0,0.0,387.3024,1
2025/10/17 12:50:07.585411849,1760698207,585039746,gps,2,1,47.472032635,19.06335212833333,148.817,24.2064,0.0,0.0,0.0,24.2064,0.0,0.0,0.0,387.3024,1
2025/10/17 12:50:07.833755123,1760698207,833327497,gps,2,1,47.472036861666666,19.063350736666667,148.801,24.2064,0.0,0.0,0.0,24.2064,0.0,0.0,0.0,387.3024,1
2025/10/17 12:50:08.87831337,1760698208,87432439,gps,2,1,47.472041323333336,19.063349616666667,148.81099999999998,24.2064,0.0,0.0,0.0,24.2064,0.0,0.0,0.0,387.3024,1
2025/10/17 12:50:08.331593006,1760698208,331432677,gps,2,1,47.472045386666665,19.06334867,148.808,22.6576,0.0,0.0,0.0,22.6576,0.0,0.0,0.0,362.5216,1
2025/10/17 12:50:08.607865803,1760698208,607570446,gps,2,1,47.472049015,19.063348211666668,148.801,24.2064,0.0,0.0,0.0,24.2064,0.0,0.0,0.0,387.3024,1
2025/10/17 12:50:08.832827048,1760698208,832443721,gps,2,1,47.472052425,19.063347648333334,148.81099999999998,24.2064,0.0,0.0,0.0,24.2064,0.0,0.0,0.0,387.3024,1
2025/10/17 12:50:09.87981688,1760698209,87601106,gps,2,1,47.472055325,19.06334658,148.816,24.2064,0.0,0.0,0.0,24.2064,0.0,0.0,0.0,387.3024,1
2025/10/17 12:50:09.335114223,1760698209,334805019,gps,2,1,47.472057953333334,19.063345518333332,148.797,24.2064,0.0,0.0,0.0,24.2064,0.0,0.0,0.0,387.3024,1
2025/10/17 12:50:09.584844667,1760698209,584503945,gps,2,1,47.47206014333333,19.063344348333334,148.8,24.2064,0.0,0.0,0.0,24.2064,0.0,0.0,0.0,387.3024,1
2025/10/17 12:50:09.836800156,1760698209,836376446,gps,2,1,47.47206199166666,19.063343391666667,148.80599999999998,24.2064,0.0,0.0,0.0,24.2064,0.0,0.0,0.0,387.3024,1
2025/10/17 12:50:10.88588805,1760698210,88228401,gps,2,1,47.47206335833334,19.063342576666667,148.808,24.2064,0.0,0.0,0.0,24.2064,0.0,0.0,0.0,387.3024,1
2025/10/17 12:50:10.332954805,1760698210,332553291,gps,2,1,47.47206452166667,19.063341428333334,148.79399999999998,24.2064,0.0,0.0,0.0,24.2064,0.0,0.0,0.0,387.3024,1
2025/10/17 12:50:10.606818049,1760698210,606467628,gps,2,1,47.47206547,19.063340616666668,148.777,24.2064,0.0,0.0,0.0,24.2064,0.0,0.0,0.0,387.3024,1
2025/10/17 12:50:10.831195302,1760698210,830924404,gps,2,1,47.47206591,19.063340068333332,148.79899999999998,24.2064,0.0,0.0,0.0,24.2064,0.0,0.0,0.0,387.3024,1
2025/10/17 12:50:11.89487649,1760698211,89128203,gps,2,1,47.47206619833333,19.06333974,148.817,24.2064,0.0,0.0,0.0,24.2064,0.0,0.0,0.0,387.3024,1
2025/10/17 12:50:11.333871076,1760698211,333499135,gps,2,1,47.472066383333335,19.06333947,148.825,24.2064,0.0,0.0,0.0,24.2064,0.0,0.0,0.0,387.3024,1
2025/10/17 12:50:11.582692468,1760698211,582310184,gps,2,1,47.472066505,19.063339386666666,148.836,24.2064,0.0,0.0,0.0,24.2064,0.0,0.0,0.0,387.3024,1
2025/10/17 12:50:11.829160355,1760698211,828734466,gps,2,1,47.472066956666666,19.063339071666668,148.84300000000002,24.2064,0.0,0.0,0.0,24.2064,0.0,0.0,0.0,387.3024,1
2025/10/17 12:50:12.96029637,1760698212,95669887,gps,2,1,47.47206764166667,19.063338308333332,148.878,24.2064,0.0,0.0,0.0,24.2064,0.0,0.0,0.0,387.3024,1
2025/10/17 12:50:12.335002313,1760698212,334591001,gps,2,1,47.47206876833334,19.063336781666667,148.913,24.2064,0.0,0.0,0.0,24.2064,0.0,0.0,0.0,387.3024,1
2025/10/17 12:50:12.606813524,1760698212,606458496,gps,2,1,47.47207006166666,19.063334688333335,148.92000000000002,24.2064,0.0,0.0,0.0,24.2064,0.0,0.0,0.0,387.3024,1
2025/10/17 12:50:12.837840440,1760698212,837373108,gps,2,1,47.47207107166667,19.063332203333335,148.93200000000002,24.2064,0.0,0.0,0.0,24.2064,0.0,0.0,0.0,387.3024,1
2025/10/17 12:50:13.87929148,1760698213,87631490,gps,2,1,47.47207211833334,19.063329448333334,148.911,24.2064,0.0,0.0,0.0,24.2064,0.0,0.0,0.0,387.3024,1
2025/10/17 12:50:13.328774755,1760698213,328393226,gps,2,1,47.472073025,19.063326751666665,148.945,24.2064,0.0,0.0,0.0,24.2064,0.0,0.0,0.0,387.3024,1
2025/10/17 12:50:13.574573358,1760698213,574220554,gps,2,1,47.472073638333335,19.06332404,148.949,26.2144,0.0,0.0,0.0,26.2144,0.0,0.0,0.0,419.4304,1
2025/10/17 12:50:13.829812681,1760698213,829419413,gps,2,1,47.47207407166667,19.063321063333333,148.95999999999998,26.2144,0.0,0.0,0.0,26.2144,0.0,0.0,0.0,419.4304,1
2025/10/17 12:50:14.86611601,1760698214,86266410,gps,2,1,47.47207444,19.063318213333332,148.99,26.2144,0.0,0.0,0.0,26.2144,0.0,0.0,0.0,419.4304,1
2025/10/17 12:50:14.331386235,1760698214,331053140,gps,2,1,47.47207458166667,19.063316285,149.035,26.2144,0.0,0.0,0.0,26.2144,0.0,0.0,0.0,419.4304,1
2025/10/17 12:50:14.606629962,1760698214,606166623,gps,2,1,47.472074365,19.063312586666665,149.031,26.2144,0.0,0.0,0.0,26.2144,0.0,0.0,0.0,419.4304,1
2025/10/17 12:50:14.828786861,1760698214,828489876,gps,2,1,47.472074246666665,19.063309091666667,149.02100000000002,26.2144,0.0,0.0,0.0,26.2144,0.0,0.0,0.0,419.4304,1
2025/10/17 12:50:15.87663885,1760698215,87267519,gps,2,1,47.472073271666666,19.063306065,149.014,26.2144,0.0,0.0,0.0,26.2144,0.0,0.0,0.0,419.4304,1
2025/10/17 12:50:15.331368778,1760698215,330965873,gps,2,1,47.47207220333333,19.063304055,149.012,26.2144,0.0,0.0,0.0,26.2144,0.0,0.0,0.0,419.4304,1
2025/10/17 12:50:15.577529404,1760698215,577208214,gps,1,1,47.47207199666666,19.06330098666667,148.934,0.016384,0.0,0.0,0.0,0.016384,0.0,0.0,0.0,0.262144,1
2025/10/17 12:50:15.830528502,1760698215,830216673,gps,1,1,47.472070806666665,19.063298566666667,148.938,0.016384,0.0,0.0,0.0,0.016384,0.0,0.0,0.0,0.262144,1
2025/10/17 12:50:16.84708306,1760698216,84421684,gps,1,1,47.47206873,19.063296605,148.92399999999998,0.010609000000000002,0.0,0.0,0.0,0.010609000000000002,0.0,0.0,0.0,0.16974400000000003,1
2025/10/17 12:50:16.326503008,1760698216,326126949,gps,1,1,47.47206661,19.063296105,148.949,0.010609000000000002,0.0,0.0,0.0,0.010609000000000002,0.0,0.0,0.0,0.16974400000000003,1
2025/10/17 12:50:16.594810221,1760698216,594356918,gps,1,1,47.472064956666664,19.063293456666667,148.98000000000002,0.010609000000000002,0.0,0.0,0.0,0.010609000000000002,0.0,0.0,0.0,0.16974400000000003,1
2025/10/17 12:50:16.826908656,1760698216,826448509,gps,1,1,47.47206347666667,19.063292996666668,148.817,0.010609000000000002,0.0,0.0,0.0,0.010609000000000002,0.0,0.0,0.0,0.16974400000000003,1
2025/10/17 12:50:17.86092492,1760698217,85745114,gps,1,1,47.472061968333335,19.063290778333332,148.778,0.016384,0.0,0.0,0.0,0.016384,0.0,0.0,0.0,0.262144,1
2025/10/17 12:50:17.328646197,1760698217,328258203,gps,1,1,47.47206004,19.063289425,148.812,0.016384,0.0,0.0,0.0,0.016384,0.0,0.0,0.0,0.262144,1
2025/10/17 12:50:17.579905770,1760698217,579558339,gps,1,1,47.472058145,19.063288523333334,148.814,0.016384,0.0,0.0,0.0,0.016384,0.0,0.0,0.0,0.262144,1
2025/10/17 12:50:17.828785256,1760698217,828490205,gps,2,1,47.47205562,19.063287153333334,148.865,26.2144,0.0,0.0,0.0,26.2144,0.0,0.0,0.0,419.4304,1
2025/10/17 12:50:18.80482376,1760698218,80153501,gps,2,1,47.47205338166667,19.063285836666665,148.824,26.2144,0.0,0.0,0.0,26.2144,0.0,0.0,0.0,419.4304,1
2025/10/17 12:50:18.326852324,1760698218,326446290,gps,1,1,47.472051135,19.063285586666666,148.81799999999998,0.010609000000000002,0.0,0.0,0.0,0.010609000000000002,0.0,0.0,0.0,0.16974400000000003,1
2025/10/17 12:50:18.599059285,1760698218,598823196,gps,1,1,47.47204899333333,19.063285443333335,148.834,0.010609000000000002,0.0,0.0,0.0,0.010609000000000002,0.0,0.0,0.0,0.16974400000000003,1
2025/10/17 12:50:18.834540848,1760698218,834058083,gps,2,1,47.47204754,19.063285156666666,148.914,16.9744,0.0,0.0,0.0,16.9744,0.0,0.0,0.0,271.5904,1
2025/10/17 12:50:19.91465274,1760698219,91095659,gps,2,1,47.472046455,19.06328441,148.913,16.9744,0.0,0.0,0.0,16.9744,0.0,0.0,0.0,271.5904,1
2025/10/17 12:50:19.330982128,1760698219,330543751,gps,2,1,47.47204562833333,19.063283581666667,148.90800000000002,13.5424,0.0,0.0,0.0,13.5424,0.0,0.0,0.0,216.6784,1
2025/10/17 12:50:19.580739782,1760698219,580360501,gps,2,1,47.472045046666665,19.063282945,148.877,16.9744,0.0,0.0,0.0,16.9744,0.0,0.0,0.0,271.5904,1
2025/10/17 12:50:19.828209502,1760698219,827864109,gps,2,1,47.47204472333333,19.063281973333332,148.79500000000002,16.9744,0.0,0.0,0.0,16.9744,0.0,0.0,0.0,271.5904,1
2025/10/17 12:50:20.87019208,1760698220,86661773,gps,2,1,47.472044585,19.063281458333332,148.743,16.9744,0.0,0.0,0.0,16.9744,0.0,0.0,0.0,271.5904,1
2025/10/17 12:50:20.331901577,1760698220,331500238,gps,2,1,47.47204466666667,19.063280876666667,148.696,16.9744,0.0,0.0,0.0,16.9744,0.0,0.0,0.0,271.5904,1
2025/10/17 12:50:20.605731857,1760698220,605346333,gps,2,1,47.47204477,19.063280563333333,148.667,26.2144,0.0,0.0,0.0,26.2144,0.0,0.0,0.0,419.4304,1
2025/10/17 12:50:20.826932874,1760698220,826621198,gps,2,1,47.47204487166667,19.063280233333334,148.642,26.2144,0.0,0.0,0.0,26.2144,0.0,0.0,0.0,419.4304,1
2025/10/17 12:50:21.87617371,1760698221,87354497,gps,2,1,47.47204492666667,19.063280098333333,148.627,71.2336,0.0,0.0,0.0,71.2336,0.0,0.0,0.0,1139.7376,1
2025/10/17 12:50:21.332378757,1760698221,331895024,gps,2,1,47.47204470166667,19.063279881666666,148.598,26.2144,0.0,0.0,0.0,26.2144,0.0,0.0,0.0,419.4304,1
2025/10/17 12:50:21.585071928,1760698221,584837828,gps,2,1,47.472044005,19.063280058333333,148.586,26.2144,0.0,0.0,0.0,26.2144,0.0,0.0,0.0,419.4304,1
2025/10/17 12:50:21.832855952,1760698221,832299151,gps,2,1,47.47204264,19.06328031,148.567,26.2144,0.0,0.0,0.0,26.2144,0.0,0.0,0.0,419.4304,1
2025/10/17 12:50:22.87332486,1760698222,87052603,gps,2,1,47.472040461666666,19.063281013333334,148.56799999999998,26.2144,0.0,0.0,0.0,26.2144,0.0,0.0,0.0,419.4304,1
2025/10/17 12:50:22.333597265,1760698222,333205555,gps,2,1,47.47203743666667,19.063281923333335,148.57,26.2144,0.0,0.0,0.0,26.2144,0.0,0.0,0.0,419.4304,1
2025/10/17 12:50:22.595736554,1760698222,595525280,gps,2,1,47.472034685,19.063283385,148.582,26.2144,0.0,0.0,0.0,26.2144,0.0,0.0,0.0,419.4304,1
2025/10/17 12:50:22.830384292,1760698222,830008251,gps,2,1,47.47203240666666,19.063284858333333,148.58100000000002,26.2144,0.0,0.0,0.0,26.2144,0.0,0.0,0.0,419.4304,1
2025/10/17 12:50:23.81702161,1760698223,81282051,gps,1,1,47.472030698333334,19.063285955,148.558,0.016384,0.0,0.0,0.0,0.016384,0.0,0.0,0.0,0.262144,1
2025/10/17 12:50:23.327443071,1760698223,327147240,gps,1,1,47.472028976666664,19.063287173333332,148.541,0.016384,0.0,0.0,0.0,0.016384,0.0,0.0,0.0,0.262144,1
2025/10/17 12:50:23.589109692,1760698223,588784925,gps,1,1,47.472027305,19.063288655,148.49599999999998,0.016384,0.0,0.0,0.0,0.016384,0.0,0.0,0.0,0.262144,1
2025/10/17 12:50:23.832233767,1760698223,831893166,gps,1,1,47.4720263,19.063289656666665,148.401,0.016384,0.0,0.0,0.0,0.016384,0.0,0.0,0.0,0.262144,1
2025/10/17 12:50:24.92895571,1760698224,92558668,gps,1,1,47.472025441666666,19.063290666666667,148.411,0.016384,0.0,0.0,0.0,0.016384,0.0,0.0,0.0,0.262144,1
2025/10/17 12:50:24.327931272,1760698224,327600501,gps,1,1,47.472024955,19.063290935,148.364,0.016384,0.0,0.0,0.0,0.016384,0.0,0.0,0.0,0.262144,1
2025/10/17 12:50:24.603012971,1760698224,602672308,gps,1,1,47.47202473666667,19.063291208333332,148.32999999999998,0.016384,0.0,0.0,0.0,0.016384,0.0,0.0,0.0,0.262144,1
2025/10/17 12:50:24.831879624,1760698224,831561243,gps,2,1,47.472024135,19.063291905,148.30599999999998,26.2144,0.0,0.0,0.0,26.2144,0.0,0.0,0.0,419.4304,1
2025/10/17 12:50:25.89852335,1760698225,89522955,gps,2,1,47.472023781666664,19.063292743333335,148.325,26.2144,0.0,0.0,0.0,26.2144,0.0,0.0,0.0,419.4304,1
2025/10/17 12:50:25.329424164,1760698225,328967933,gps,2,1,47.47202299833334,19.063294253333332,148.341,26.2144,0.0,0.0,0.0,26.2144,0.0,0.0,0.0,419.4304,1
2025/10/17 12:50:25.582070200,1760698225,581667255,gps,1,1,47.47202198666667,19.063296033333334,148.303,0.016384,0.0,0.0,0.0,0.016384,0.0,0.0,0.0,0.262144,1
2025/10/17 12:50:25.829440520,1760698225,829057978,gps,2,1,47.472021141666666,19.06329858166667,148.284,26.2144,0.0,0.0,0.0,26.2144,0.0,0.0,0.0,419.4304,1
2025/10/17 12:50:26.88569895,1760698226,88157474,gps,2,1,47.47201999666667,19.06330056,148.261,26.2144,0.0,0.0,0.0,26.2144,0.0,0.0,0.0,419.4304,1
2025/10/17 12:50:26.327839725,1760698226,327503487,gps,2,1,47.47201935333333,19.063303025,148.16199999999998,26.2144,0.0,0.0,0.0,26.2144,0.0,0.0,0.0,419.4304,1
2025/10/17 12:50:26.601279140,1760698226,600897316,gps,1,1,47.472019175,19.063307895,148.13400000000001,0.016384,0.0,0.0,0.0,0.016384,0.0,0.0,0.0,0.262144,1
2025/10/17 12:50:26.827621225,1760698226,827242747,gps,2,1,47.47201933,19.063313715,148.148,26.2144,0.0,0.0,0.0,26.2144,0.0,0.0,0.0,419.4304,1
2025/10/17 12:50:27.79174268,1760698227,78820369,gps,1,1,47.472020095,19.06331882,148.1,0.016384,0.0,0.0,0.0,0.016384,0.0,0.0,0.0,0.262144,1
2025/10/17 12:50:27.326519492,1760698227,326194994,gps,1,1,47.47202060666667,19.063323451666665,148.024,0.016384,0.0,0.0,0.0,0.016384,0.0,0.0,0.0,0.262144,1
2025/10/17 12:50:27.575665039,1760698227,575333514,gps,1,1,47.47202221,19.063326506666666,147.926,0.016384,0.0,0.0,0.0,0.016384,0.0,0.0,0.0,0.262144,1
2025/10/17 12:50:27.831734647,1760698227,831379680,gps,2,1,47.472023416666666,19.063330353333335,147.918,26.2144,0.0,0.0,0.0,26.2144,0.0,0.0,0.0,419.4304,1
2025/10/17 12:50:28.88133285,1760698228,87771712,gps,2,1,47.47202550833333,19.063334308333335,147.961,26.2144,0.0,0.0,0.0,26.2144,0.0,0.0,0.0,419.4304,1
2025/10/17 12:50:28.333552088,1760698228,333040569,gps,1,1,47.47202864,19.063337586666666,147.845,0.016384,0.0,0.0,0.0,0.016384,0.0,0.0,0.0,0.262144,1
2025/10/17 12:50:28.601969966,1760698228,601685378,gps,1,1,47.472032373333334,19.063341113333333,147.864,0.016384,0.0,0.0,0.0,0.016384,0.0,0.0,0.0,0.262144,1
2025/10/17 12:50:28.831514376,1760698228,831236913,gps,2,1,47.47203698166667,19.063342386666665,147.792,26.2144,0.0,0.0,0.0,26.2144,0.0,0.0,0.0,419.4304,1
2025/10/17 12:50:29.87475965,1760698229,87103940,gps,2,1,47.47204146333333,19.063343368333335,147.87900000000002,71.2336,0.0,0.0,0.0,71.2336,0.0,0.0,0.0,1139.7376,1
2025/10/17 12:50:29.330504023,1760698229,330075411,gps,2,1,47.47204563333333,19.06334328166667,147.89600000000002,71.2336,0.0,0.0,0.0,71.2336,0.0,0.0,0.0,1139.7376,1
2025/10/17 12:50:29.581178023,1760698229,580880355,gps,2,1,47.472049655,19.063342461666668,147.921,71.2336,0.0,0.0,0.0,71.2336,0.0,0.0,0.0,1139.7376,1
2025/10/17 12:50:29.826230997,1760698229,825789968,gps,2,1,47.47205288833333,19.063341108333333,147.874,71.2336,0.0,0.0,0.0,71.2336,0.0,0.0,0.0,1139.7376,1
2025/10/17 12:50:30.89223939,1760698230,88825506,gps,2,1,47.472055695,19.06334045,147.87,26.2144,0.0,0.0,0.0,26.2144,0.0,0.0,0.0,419.4304,1
2025/10/17 12:50:30.330850954,1760698230,330490090,gps,2,1,47.47205830833333,19.063340058333335,147.858,26.2144,0.0,0.0,0.0,26.2144,0.0,0.0,0.0,419.4304,1
2025/10/17 12:50:30.602298760,1760698230,601965582,gps,2,1,47.472060776666666,19.063339381666665,147.84199999999998,26.2144,0.0,0.0,0.0,26.2144,0.0,0.0,0.0,419.4304,1
2025/10/17 12:50:30.833345946,1760698230,832878928,gps,2,1,47.472063193333334,19.063338776666665,147.82299999999998,26.2144,0.0,0.0,0.0,26.2144,0.0,0.0,0.0,419.4304,1
2025/10/17 12:50:31.93890307,1760698231,93487901,gps,2,1,47.47206642166667,19.06333878,147.821,26.2144,0.0,0.0,0.0,26.2144,0.0,0.0,0.0,419.4304,1
2025/10/17 12:50:31.332504001,1760698231,332127814,gps,2,1,47.47207057166667,19.06333856,147.821,26.2144,0.0,0.0,0.0,26.2144,0.0,0.0,0.0,419.4304,1
2025/10/17 12:50:31.576061194,1760698231,575762584,gps,2,1,47.472075358333335,19.063338466666668,147.789,26.2144,0.0,0.0,0.0,26.2144,0.0,0.0,0.0,419.4304,1
2025/10/17 12:50:31.836976665,1760698231,836668312,gps,2,1,47.47208030666667,19.063339146666667,147.812,26.2144,0.0,0.0,0.0,26.2144,0.0,0.0,0.0,419.4304,1
2025/10/17 12:50:32.85487131,1760698232,85141769,gps,2,1,47.472084945,19.06334026,147.82299999999998,26.2144,0.0,0.0,0.0,26.2144,0.0,0.0,0.0,419.4304,1
2025/10/17 12:50:32.333841547,1760698232,333496852,gps,2,1,47.47208946166667,19.063341298333334,147.791,26.2144,0.0,0.0,0.0,26.2144,0.0,0.0,0.0,419.4304,1
2025/10/17 12:50:32.601237498,1760698232,600853125,gps,2,1,47.47209328,19.063342406666667,147.784,26.2144,0.0,0.0,0.0,26.2144,0.0,0.0,0.0,419.4304,1
2025/10/17 12:50:32.832210396,1760698232,831878574,gps,2,1,47.472096685,19.063343303333333,147.824,26.2144,0.0,0.0,0.0,26.2144,0.0,0.0,0.0,419.4304,1
2025/10/17 12:50:33.89382540,1760698233,88989077,gps,2,1,47.472100061666666,19.06334371333333,147.792,24.2064,0.0,0.0,0.0,24.2064,0.0,0.0,0.0,387.3024,1
2025/10/17 12:50:33.329268630,1760698233,328889528,gps,2,1,47.472103241666666,19.063343546666665,147.78699999999998,24.2064,0.0,0.0,0.0,24.2064,0.0,0.0,0.0,387.3024,1
2025/10/17 12:50:33.581702188,1760698233,581389449,gps,2,1,47.47210592166667,19.06334307,147.79899999999998,24.2064,0.0,0.0,0.0,24.2064,0.0,0.0,0.0,387.3024,1
2025/10/17 12:50:33.830483761,1760698233,830317865,gps,2,1,47.47210869,19.063341733333335,147.788,24.2064,0.0,0.0,0.0,24.2064,0.0,0.0,0.0,387.3024,1
2025/10/17 12:50:34.86264762,1760698234,85947686,gps,2,1,47.47211217833333,19.063339163333332,147.75900000000001,24.2064,0.0,0.0,0.0,24.2064,0.0,0.0,0.0,387.3024,1
2025/10/17 12:50:34.326667310,1760698234,326317186,gps,2,1,47.47211555166667,19.06333559,147.76,24.2064,0.0,0.0,0.0,24.2064,0.0,0.0,0.0,387.3024,1
2025/10/17 12:50:34.604529356,1760698234,604166122,gps,2,1,47.472118306666665,19.063331158333334,147.738,24.2064,0.0,0.0,0.0,24.2064,0.0,0.0,0.0,387.3024,1
2025/10/17 12:50:34.833208771,1760698234,832898853,gps,2,1,47.47212006833333,19.06332661,147.71800000000002,24.2064,0.0,0.0,0.0,24.2064,0.0,0.0,0.0,387.3024,1
2025/10/17 12:50:35.91227358,1760698235,90907329,gps,2,1,47.47212122333333,19.06332243,147.727,46.239999999999995,0.0,0.0,0.0,46.239999999999995,0.0,0.0,0.0,739.8399999999999,1
2025/10/17 12:50:35.332949640,1760698235,332523736,gps,2,1,47.47212188666666,19.063319058333335,147.74200000000002,46.239999999999995,0.0,0.0,0.0,46.239999999999995,0.0,0.0,0.0,739.8399999999999,1
2025/10/17 12:50:35.582469229,1760698235,582068445,gps,2,1,47.47212247833333,19.063315786666667,147.753,46.239999999999995,0.0,0.0,0.0,46.239999999999995,0.0,0.0,0.0,739.8399999999999,1
2025/10/17 12:50:35.829006312,1760698235,828643914,gps,2,1,47.47212304,19.063313431666668,147.744,46.239999999999995,0.0,0.0,0.0,46.239999999999995,0.0,0.0,0.0,739.8399999999999,1
2025/10/17 12:50:36.80856698,1760698236,80532507,gps,2,1,47.472123355,19.06331163,147.75400000000002,46.239999999999995,0.0,0.0,0.0,46.239999999999995,0.0,0.0,0.0,739.8399999999999,1
2025/10/17 12:50:36.332356091,1760698236,331924879,gps,2,1,47.472123403333335,19.063310595,147.777,46.239999999999995,0.0,0.0,0.0,46.239999999999995,0.0,0.0,0.0,739.8399999999999,1
2025/10/17 12:50:36.605859974,1760698236,605465774,gps,2,1,47.47212348666667,19.063310663333333,147.767,46.239999999999995,0.0,0.0,0.0,46.239999999999995,0.0,0.0,0.0,739.8399999999999,1
2025/10/17 12:50:36.832660108,1760698236,832282043,gps,2,1,47.47212342666667,19.063310738333332,147.8,46.239999999999995,0.0,0.0,0.0,46.239999999999995,0.0,0.0,0.0,739.8399999999999,1
2025/10/17 12:50:37.87739526,1760698237,87371013,gps,2,1,47.4721234,19.063310831666666,147.816,46.239999999999995,0.0,0.0,0.0,46.239999999999995,0.0,0.0,0.0,739.8399999999999,1
2025/10/17 12:50:37.330974772,1760698237,330555895,gps,2,1,47.472123415,19.063310891666667,147.81799999999998,46.239999999999995,0.0,0.0,0.0,46.239999999999995,0.0,0.0,0.0,739.8399999999999,1
2025/10/17 12:50:37.582107354,1760698237,581791926,gps,2,1,47.47212339666667,19.063311048333333,147.824,20.430399999999995,0.0,0.0,0.0,20.430399999999995,0.0,0.0,0.0,326.8863999999999,1
2025/10/17 12:50:37.830902744,1760698237,830524989,gps,2,1,47.47212340833333,19.063311128333332,147.832,20.430399999999995,0.0,0.0,0.0,20.430399999999995,0.0,0.0,0.0,326.8863999999999,1
2025/10/17 12:50:38.89462004,1760698238,89104846,gps,2,1,47.47212341833333,19.063311228333333,147.834,20.430399999999995,0.0,0.0,0.0,20.430399999999995,0.0,0.0,0.0,326.8863999999999,1
2025/10/17 12:50:38.333444217,1760698238,333002938,gps,2,1,47.472123401666664,19.063311311666666,147.83499999999998,20.430399999999995,0.0,0.0,0.0,20.430399999999995,0.0,0.0,0.0,326.8863999999999,1
